X,Y,Record_ID,Store_Name,Store_Street_Address,Additonal_Address,City,State,Zip_Code,Zip4,County,Store_Type,Latitude,Longitude,Incentive_Program,Grantee_Name,ObjectId
-118.38191,34.054405,253280,GLATT MART 1,8708 W Pico Blvd,,Los Angeles,CA,90035,2206,LOS ANGELES,Super Store,34.054405,-118.38191,,,5
-118.2141,34.069725,242790,ABC MARKET,2100 Workman St,,Los Angeles,CA,90031,3035,LOS ANGELES,Convenience Store,34.069725,-118.2141,,,103
-118.01152,34.097252,242960,Los Toros Meat Mkt #2,5225 Peck Rd,,El Monte,CA,91732,1122,LOS ANGELES,Grocery Store,34.097252,-118.01152,,,116
-118.25647,34.00705,254038,Mercado Garibaldi,4212 S Central Ave,,Los Angeles,CA,90011,3002,LOS ANGELES,Grocery Store,34.00705,-118.25647,,,163
-118.11625,34.579937,254109,7-ELEVEN 24483 C,703 E Palmdale Blvd,,Palmdale,CA,93550,4741,LOS ANGELES,Convenience Store,34.579937,-118.11625,,,169
-118.36813,34.139675,251805,Ralphs Fresh Fare 133,10901 Ventura Blvd,,Studio City,CA,91604,3341,LOS ANGELES,Super Store,34.139675,-118.36813,,,260
-117.7288,34.062954,251810,HOA BINH POMONA SUPERMARKET,1093 E Holt Ave,,Pomona,CA,91767,5726,LOS ANGELES,Super Store,34.062954,-117.7288,,,262
-118.2096,33.980381,354860,Georges Liquor Market 0,3224 E Gage Ave,,Huntington Park,CA,90255,5405,LOS ANGELES,Convenience Store,33.980381,-118.2096,,,334
-118.22414,33.974331,1561611,Jn Mart,2625 E Florence Ave,Ste D,Huntington Park,CA,90255,4756,LOS ANGELES,Convenience Store,33.974331,-118.22414,,,335
-118.47261,34.02737,250160,Ralphs Fresh Fare 292,1644 Cloverfield Blvd,,Santa Monica,CA,90404,4006,LOS ANGELES,Super Store,34.02737,-118.47261,,,395
-117.92565,34.044193,252488,FASTRIP FOOD STORE,1400 Valinda Ave,,La Puente,CA,91744,1436,LOS ANGELES,Convenience Store,34.044193,-117.92565,,,431
-118.40502,34.186695,252600,7-ELEVEN 18607 B,12463 Victory Blvd,,North Hollywood,CA,91606,3139,LOS ANGELES,Convenience Store,34.186695,-118.40502,,,441
-118.10508,33.985016,250221,Walmart 2886,8500 WASHINGTON BLVD,,PICO RIVERA,CA,90660,    ,LOS ANGELES,Super Store,33.985016,-118.10508,,,503
-118.50122,34.208515,255027,Balboa Market,7613 Balboa Blvd,,Van Nuys,CA,91406,2203,LOS ANGELES,Grocery Store,34.208515,-118.50122,,,573
-118.29078,34.069107,255410,VONS 2261,3461 W 3rd St,,Los Angeles,CA,90020,1604,LOS ANGELES,Supermarket,34.069107,-118.29078,,,608
-118.18212,34.114624,250569,York Square Liquor,6312 York Blvd,,Los Angeles,CA,90042,3640,LOS ANGELES,Convenience Store,34.114624,-118.18212,,,647
-117.87888,34.090897,250814,G & H Liquor,606 E San Bernardino Rd,,Covina,CA,91723,1733,LOS ANGELES,Convenience Store,34.090897,-117.87888,,,665
-118.30773,34.052631,245467,GALLERIA MARKET,3250 W Olympic Blvd,Ste 100,Los Angeles,CA,90006,2370,LOS ANGELES,Super Store,34.052631,-118.30773,,,814
-118.26444,34.163143,245782,Gyumri Market & Deli,452 W Stocker St,Ste B,Glendale,CA,91202,3262,LOS ANGELES,Grocery Store,34.163143,-118.26444,,,848
-118.16991,34.018719,245970,Lucky Market,4635 E Olympic Blvd,,Los Angeles,CA,90022,3701,LOS ANGELES,Convenience Store,34.018719,-118.16991,,,861
-118.51774,34.172241,246252,Trader Joe's 56,17640 Burbank Blvd,,Encino,CA,91316,1725,LOS ANGELES,Supermarket,34.172241,-118.51774,,,882
-118.36819,34.16486,244166,RALPHS GROCERY COMPANY 56,10900 Magnolia Blvd,,North Hollywood,CA,91601,3903,LOS ANGELES,Super Store,34.16486,-118.36819,,,902
-117.7062,34.121593,244864,VONS 2155,550 E Baseline Rd,,Claremont,CA,91711,2236,LOS ANGELES,Supermarket,34.121593,-117.7062,,,971
-118.21269,33.804359,270667,Big Saver Foods 15,1500 W Willow St,,Long Beach,CA,90810,3121,LOS ANGELES,Super Store,33.804359,-118.21269,,,1030
-118.31764,34.105278,270935,GELSONS MARKET 114,5877 Franklin Ave,,Los Angeles,CA,90028,5618,LOS ANGELES,Supermarket,34.105278,-118.31764,,,1047
-118.21169,33.789886,270973,PACIFIC MARKET,1449 W Pacific Coast Hwy,,Long Beach,CA,90810,4225,LOS ANGELES,Convenience Store,33.789886,-118.21169,,,1054
-118.29162,34.006161,271036,LUIS MEAT MARKET,4253 S Vermont Ave,,Los Angeles,CA,90037,2463,LOS ANGELES,Supermarket,34.006161,-118.29162,,,1059
-118.18638,33.982407,271193,99 CENTS ONLY STORES  14,6161 Atlantic Blvd,,Maywood,CA,90270,3120,LOS ANGELES,Other,33.982407,-118.18638,,,1073
-118.04139,34.091763,271288,CORNER LIQUOR,10336 Lower Azusa Rd,,El Monte,CA,91731,1207,LOS ANGELES,Convenience Store,34.091763,-118.04139,,,1082
-118.35572,34.032475,268721,R-RANCH MARKET #14,5212 W Adams Blvd,,Los Angeles,CA,90016,2625,LOS ANGELES,Super Store,34.032475,-118.35572,,,1149
-118.46778,34.235455,268744,Short Stop 23,15400 Nordhoff St,,North Hills,CA,91343,3915,LOS ANGELES,Convenience Store,34.235455,-118.46778,,,1153
-118.47092,34.413841,268996,FOOD 4 LESS 376,19200 Soledad Canyon Rd,,Canyon Country,CA,91351,3366,LOS ANGELES,Super Store,34.413841,-118.47092,,,1182
-117.7594,34.069962,248819,Di Carlos Liquor,1247 N White Ave,,Pomona,CA,91768,1930,LOS ANGELES,Convenience Store,34.069962,-117.7594,,,1220
-118.43841,34.022743,266774,Whole Foods Market 10045,11666 National Blvd,,Los Angeles,CA,90064,3802,LOS ANGELES,Super Store,34.022743,-118.43841,,,1255
-118.32665,34.08432,267127,Pavilions 2229,727 Vine St,,Los Angeles,CA,90038,3713,LOS ANGELES,Supermarket,34.08432,-118.32665,,,1283
-117.75532,34.062286,247245,POMONA HAPPY MARKET,445 W Holt Ave,,Pomona,CA,91768,3602,LOS ANGELES,Convenience Store,34.062286,-117.75532,,,1362
-118.33871,34.062084,247655,7-ELEVEN 18406C,5000 Wilshire Blvd,,Los Angeles,CA,90036,4315,LOS ANGELES,Convenience Store,34.062084,-118.33871,,,1399
-118.60397,34.168476,248049,Ralphs Fresh Fare 81,21909 Ventura Blvd,,Woodland Hills,CA,91364,1725,LOS ANGELES,Super Store,34.168476,-118.60397,,,1441
-118.288,33.727699,248069,STANLEY'S LIQUOR JR. MARKET,1803 S Pacific Ave,,San Pedro,CA,90731,5426,LOS ANGELES,Convenience Store,33.727699,-118.288,,,1443
-118.41435,34.193909,248092,HAIG'S KABOB HOUSE,12912 Vanowen St,,North Hollywood,CA,91605,4825,LOS ANGELES,Grocery Store,34.193909,-118.41435,,,1447
-118.16513,33.782623,272607,LEE HENG MARKET,2211 E Anaheim St,,Long Beach,CA,90804,3444,LOS ANGELES,Other,33.782623,-118.16513,,,1627
-118.32166,34.043598,267468,SHOW PLACE LIQUOR,3401 W Venice Blvd,,Los Angeles,CA,90019,6116,LOS ANGELES,Convenience Store,34.043598,-118.32166,,,1744
-118.37967,33.887447,272128,Trader Joe's 34,1821 Manhattan Beach Blvd,,Manhattan Beach,CA,90266,6221,LOS ANGELES,Supermarket,33.887447,-118.37967,,,1804
-118.4603,34.024395,267812,99 CENTS ONLY STORES  35,2801 Pico Blvd,,Santa Monica,CA,90405,1919,LOS ANGELES,Other,34.024395,-118.4603,,,1821
-118.2902,34.17168,267881,JONS MARKET 9,1717 W Glenoaks Blvd,,Glendale,CA,91201,1815,LOS ANGELES,Supermarket,34.17168,-118.2902,,,1836
-118.11649,33.847389,268013,99 CENTS ONLY STORES  58,4929 Woodruff Ave,,Lakewood,CA,90713,1525,LOS ANGELES,Other,33.847389,-118.11649,,,1852
-118.43119,34.207073,268084,MICHAEL'S MARKET,7510 Woodman Ave,,Van Nuys,CA,91405,    ,LOS ANGELES,Convenience Store,34.207073,-118.43119,,,1866
-118.29158,33.993973,272504,Poblano Market,5315 S Vermont Ave,,Los Angeles,CA,90037,3529,LOS ANGELES,Other,33.993973,-118.29158,,,1886
-118.30878,33.877602,235191,Casino Liquor,16924 S Western Ave,,Gardena,CA,90247,5220,LOS ANGELES,Convenience Store,33.877602,-118.30878,,,1907
-118.49199,34.193962,235195,LOUIE'S LIQUOR,16461 Vanowen St,,Van Nuys,CA,91406,4730,LOS ANGELES,Convenience Store,34.193962,-118.49199,,,1908
-118.35528,34.090855,235550,7-ELEVEN 24131 B,7609 Santa Monica Blvd,,West Hollywood,CA,90046,6408,LOS ANGELES,Convenience Store,34.090855,-118.35528,,,1939
-118.55466,34.03949,236135,VONS 2266,17380 W Sunset Blvd,,Pacific Palisades,CA,90272,4102,LOS ANGELES,Supermarket,34.03949,-118.55466,,,1980
-118.42983,33.998829,236304,VONS 2270,4030 S Centinela Ave,,Los Angeles,CA,90066,4907,LOS ANGELES,Supermarket,33.998829,-118.42983,,,1995
-118.43743,34.035854,283837,SMART & FINAL 395,11221 W Pico Blvd,,Los Angeles,CA,90064,1714,LOS ANGELES,Super Store,34.035854,-118.43743,,,2051
-117.96302,34.010185,287632,99 Cents Only Stores 193,1120 S Hacienda Blvd,,Hacienda Heights,CA,91745,2230,LOS ANGELES,Other,34.010185,-117.96302,,,2143
-118.33968,34.184593,287694,RALPHS  648,2600 W Victory Blvd,,Burbank,CA,91505,1670,LOS ANGELES,Super Store,34.184593,-118.33968,,,2182
-118.26521,33.94717,285825,FARM FRESH DAIRY,9803 Avalon Blvd,,Los Angeles,CA,90003,4314,LOS ANGELES,Convenience Store,33.94717,-118.26521,,,2229
-118.44408,34.06258,286372,Ralphs Fresh Fare 759,10861 Weyburn Ave,,Los Angeles,CA,90024,2957,LOS ANGELES,Super Store,34.06258,-118.44408,,,2295
-118.17687,34.056038,287751,ALVAREZ BAKERY,4125 City Terrace Dr,,Los Angeles,CA,90063,1106,LOS ANGELES,Specialty Store,34.056038,-118.17687,,,2318
-118.1453,33.902107,287875,Walmart 2110,14501 LAKEWOOD BLVD,,PARAMOUNT,CA,90723,    ,LOS ANGELES,Super Store,33.902107,-118.1453,,,2399
-118.27385,33.941292,284738,B & B MARKET,10420 S Main St,,Los Angeles,CA,90003,4626,LOS ANGELES,Grocery Store,33.941292,-118.27385,,,2413
-118.458,34.186607,238780,Los 3 Potrillos Carniceria,14920 Victory Blvd,,Van Nuys,CA,91411,1805,LOS ANGELES,Grocery Store,34.186607,-118.458,,,2444
-117.99387,34.078533,239769,El Mercado Del Pueblo,12760 Ramona Blvd,,Baldwin Park,CA,91706,3627,LOS ANGELES,Grocery Store,34.078533,-117.99387,,,2486
-118.29753,34.069004,239773,ASIAN MART,3732 W 3rd St,,Los Angeles,CA,90020,2305,LOS ANGELES,Grocery Store,34.069004,-118.29753,,,2493
-118.19363,33.898201,286453,Kathy's Bakery,14815 S Atlantic Ave,,Compton,CA,90221,3003,LOS ANGELES,Specialty Store,33.898201,-118.19363,,,2664
-118.27209,34.10733,286613,Trader Joe's 17,2738 Hyperion Ave,,Los Angeles,CA,90027,3002,LOS ANGELES,Supermarket,34.10733,-118.27209,,,2683
-118.56497,34.172321,286709,99 Cents Only Store 87,19836 Ventura Blvd,,Woodland Hills,CA,91364,2661,LOS ANGELES,Other,34.172321,-118.56497,,,2690
-118.25303,33.978348,287237,Star Market,1258 E 68th St,,Los Angeles,CA,90001,1631,LOS ANGELES,Convenience Store,33.978348,-118.25303,,,2747
-118.23026,33.97604,287433,FOOD 4 LESS 321,6920 Santa Fe Ave,,Huntington Park,CA,90255,3908,LOS ANGELES,Super Store,33.97604,-118.23026,,,2762
-118.29659,33.872753,240227,99 Ranch Market 6,1340 W Artesia Blvd,,Gardena,CA,90248,3370,LOS ANGELES,Super Store,33.872753,-118.29659,,,2822
-118.09837,34.16869,240410,7-ELEVEN 25293 A,1319 N Altadena Dr,,Pasadena,CA,91107,1431,LOS ANGELES,Convenience Store,34.16869,-118.09837,,,2842
-118.55851,34.378643,238217,99 CENTS ONLY STORES 60,24200 Lyons Ave,,Newhall,CA,91321,2343,LOS ANGELES,Other,34.378643,-118.55851,,,2901
-118.20409,34.073784,258763,CONCHITA MARKET,3432 N Broadway,,Los Angeles,CA,90031,2832,LOS ANGELES,Convenience Store,34.073784,-118.20409,,,3006
-118.18827,34.136333,258816,VONS 2655,7311 N Figueroa St,,Los Angeles,CA,90041,2512,LOS ANGELES,Supermarket,34.136333,-118.18827,,,3011
-118.18468,33.841644,258998,VONS 3519,4550 Atlantic Ave,,Long Beach,CA,90807,1513,LOS ANGELES,Supermarket,33.841644,-118.18468,,,3028
-118.36572,34.224586,226214,7-ELEVEN 13834B,8475 Sunland Blvd,,Sun Valley,CA,91352,3437,LOS ANGELES,Convenience Store,34.224586,-118.36572,,,3121
-118.42455,34.26836,232008,SMART & FINAL 372,10893 San Fernando Rd,,Pacoima,CA,91331,2629,LOS ANGELES,Super Store,34.26836,-118.42455,,,3206
-118.14136,33.928478,261140,CIRCLE M MINI MARKET,12142 Downey Ave,,Downey,CA,90242,2534,LOS ANGELES,Convenience Store,33.928478,-118.14136,,,3343
-118.19077,33.888737,261464,LOS DOS HERMANOS,4618 E Alondra Blvd,# 24,Compton,CA,90221,3749,LOS ANGELES,Grocery Store,33.888737,-118.19077,,,3377
-118.36698,33.900181,259813,FOOD 4 LESS  313,14500 Ocean Gate Ave,,Hawthorne,CA,90250,6745,LOS ANGELES,Super Store,33.900181,-118.36698,,,3413
-118.26523,34.001968,262078,JENNY BAKERY,4518 Avalon Blvd,,Los Angeles,CA,90011,5629,LOS ANGELES,Convenience Store,34.001968,-118.26523,,,3447
-117.82687,34.116665,230754,Walmart 1941,1950 Auto Centre Dr,,Glendora,CA,91740,6700,LOS ANGELES,Super Store,34.116665,-117.82687,,,3634
-118.30916,33.929821,231039,Food 4 Less 399,11407 S Western Ave,,Los Angeles,CA,90047,5002,LOS ANGELES,Super Store,33.929821,-118.30916,,,3747
-118.1349,34.1059,231240,RALPHS 21,1745 Garfield Ave,,South Pasadena,CA,91030,4923,LOS ANGELES,Super Store,34.1059,-118.1349,,,3770
-118.57977,34.257908,226678,Trader Joe's 184,10330 Mason Ave,,Chatsworth,CA,91311,3305,LOS ANGELES,Supermarket,34.257908,-118.57977,,,3847
-118.1763,33.81913,226843,EDDIE'S LIQUOR & JR MARKET,3400 Orange Ave,,Long Beach,CA,90807,4827,LOS ANGELES,Convenience Store,33.81913,-118.1763,,,3861
-118.69308,34.0336,260107,Ralphs Fresh Fare 731,23841 Malibu Rd,,Malibu,CA,90265,4644,LOS ANGELES,Super Store,34.0336,-118.69308,,,3934
-118.36454,34.148296,260111,99 CENTS ONLY STORES  40,4304 Lankershim Blvd,,North Hollywood,CA,91602,2752,LOS ANGELES,Other,34.148296,-118.36454,,,3935
-118.33942,33.938808,260342,RICHARD'S MARKET,3757 W 107th St,,Inglewood,CA,90303,1933,LOS ANGELES,Convenience Store,33.938808,-118.33942,,,3962
-118.34415,34.093441,279798,RALPHS 293,1233 N la Brea Ave,,West Hollywood,CA,90038,1023,LOS ANGELES,Super Store,34.093441,-118.34415,,,4005
-118.18771,33.973846,280127,NORTHGATE #10,6801 Atlantic Ave,,Bell,CA,90201,3644,LOS ANGELES,Super Store,33.973846,-118.18771,,The Regents of the Univ. of Calif. San Diego,4035
-118.35277,33.935017,280439,Carniceria Los Tapatios,11045 Hawthorne Blvd,,Lennox,CA,90304,2315,LOS ANGELES,Specialty Store,33.935017,-118.35277,,,4057
-118.20345,33.97971,249657,GUADALUPANA MEAT MARKET INC,3472 Gage Ave,,Bell,CA,90201,2131,LOS ANGELES,Grocery Store,33.97971,-118.20345,,,4109
-117.73897,34.062634,275536,99 CENTS ONLY STORE 82,606 E Holt Ave,,Pomona,CA,91767,5626,LOS ANGELES,Other,34.062634,-117.73897,,,4122
-118.25603,33.993591,275556,Mi Ranchito Meat Market,5400 S Central Ave,,Los Angeles,CA,90011,4728,LOS ANGELES,Grocery Store,33.993591,-118.25603,,,4131
-118.19226,34.040527,279194,El Super 4,3405 E Cesar E Chavez Ave,,Los Angeles,CA,90063,4105,LOS ANGELES,Supermarket,34.040527,-118.19226,,,4171
-118.34977,34.097973,279644,GRANDMA'S DELI,7300 W Sunset Blvd,Ste M,Los Angeles,CA,90046,3429,LOS ANGELES,Grocery Store,34.097973,-118.34977,,,4214
-118.28277,34.007973,279729,BESTWAY LIQUOR,4157 S Figueroa St,,Los Angeles,CA,90037,2038,LOS ANGELES,Convenience Store,34.007973,-118.28277,,,4225
-118.23029,33.9697,277920,LA PERLA MKT,7681 Santa Fe Ave,,Huntington Park,CA,90255,6054,LOS ANGELES,Convenience Store,33.9697,-118.23029,,,4363
-118.28793,33.741741,278484,Guanajuato Meat Market 5,235 S Pacific Ave,,San Pedro,CA,90731,2648,LOS ANGELES,Grocery Store,33.741741,-118.28793,,,4421
-118.10154,34.079613,278541,99 Ranch Market 208,140 W Valley Blvd,,San Gabriel,CA,91776,    ,LOS ANGELES,Super Store,34.079613,-118.10154,,,4429
-118.38107,34.054241,278557,Kabob By Faraj,8678 W Pico Blvd,,Los Angeles,CA,90035,2313,LOS ANGELES,Specialty Store,34.054241,-118.38107,,,4431
-118.4482,34.034092,278618,Ralphs Fresh Fare 210,11727 W Olympic Blvd,,Los Angeles,CA,90064,1202,LOS ANGELES,Super Store,34.034092,-118.4482,,,4439
-118.31712,33.993267,278668,54TH VAN NESS LIQUOR MARKET,2201 W 54th St,,Los Angeles,CA,90043,2607,LOS ANGELES,Convenience Store,33.993267,-118.31712,,,4443
-118.13947,34.710629,281141,SUPER STORE,45549 Beech Ave,,Lancaster,CA,93534,1621,LOS ANGELES,Convenience Store,34.710629,-118.13947,,,4478
-117.92643,34.009357,263995,R-RANCH MARKET #11,17305 Valley Blvd,,La Puente,CA,91744,5653,LOS ANGELES,Supermarket,34.009357,-117.92643,,,4483
-118.32722,33.872978,308407,J'S LIQUOR,3133 Artesia Blvd,,Torrance,CA,90504,2614,LOS ANGELES,Convenience Store,33.872978,-118.32722,,,4546
-118.09428,34.146202,262865,7-ELEVEN 20269C,2717 E Colorado Blvd,,Pasadena,CA,91107,4369,LOS ANGELES,Convenience Store,34.146202,-118.09428,,,4635
-118.44987,34.227131,308596,Tapalchulteca,8640 Van Nuys Blvd,,Panorama City,CA,91402,2913,LOS ANGELES,Other,34.227131,-118.44987,,,4650
-118.5234,34.257938,276045,7-ELEVEN 32696 A,10325 Zelzah Ave,,Porter Ranch,CA,91326,3507,LOS ANGELES,Convenience Store,34.257938,-118.5234,,,4652
-118.45872,34.303341,274916,VALLARTA SUPERMARKET 7,12881 Bradley Ave,,Sylmar,CA,91342,3828,LOS ANGELES,Super Store,34.303341,-118.45872,,,4656
-118.02694,33.942268,274927,Stater Bros. Markets 15,14212 Mulberry Dr,,Whittier,CA,90604,1204,LOS ANGELES,Supermarket,33.942268,-118.02694,,,4662
-118.25543,33.916416,274954,SMART & FINAL 341,1125 E El Segundo Blvd,,Los Angeles,CA,90059,3101,LOS ANGELES,Super Store,33.916416,-118.25543,,,4695
-118.19054,34.046009,308679,XENNA'S MARKET,3318 Blanchard St,,Los Angeles,CA,90063,3840,LOS ANGELES,Convenience Store,34.046009,-118.19054,,,4705
-118.11603,33.847107,275032,RALPH'S GROCERY COMPANY 165,5951 Del Amo Blvd,,Lakewood,CA,90713,1999,LOS ANGELES,Super Store,33.847107,-118.11603,,,4738
-118.4206,34.247841,276281,Superior Grocers 111,9801 Laurel Canyon Blvd,,Pacoima,CA,91331,4039,LOS ANGELES,Supermarket,34.247841,-118.4206,,,4800
-118.33032,33.945499,276294,Walgreens 06974,3331 W Century Blvd,,Inglewood,CA,90303,1366,LOS ANGELES,Other,33.945499,-118.33032,,,4821
-118.21622,33.908298,249522,Satellite Market,1739 N Santa Fe Ave,,Compton,CA,90221,1007,LOS ANGELES,Convenience Store,33.908298,-118.21622,,,4856
-118.11306,34.164761,275430,Garos Basturma,1082 N Allen Ave,,Pasadena,CA,91104,3203,LOS ANGELES,Grocery Store,34.164761,-118.11306,,,4944
-118.36109,33.901848,263778,CVS Pharmacy 5809,4775 W Rosecrans Ave,,Hawthorne,CA,90250,6842,LOS ANGELES,Other,33.901848,-118.36109,,,4990
-118.02172,34.052345,232544,Riveras Meat Market,2514 Durfee Ave,Ste B,El Monte,CA,91732,3709,LOS ANGELES,Specialty Store,34.052345,-118.02172,,,5066
-118.18626,34.040493,232602,Superior Grocers 113,3600 E Cesar E Chavez Ave,,Los Angeles,CA,90063,2217,LOS ANGELES,Supermarket,34.040493,-118.18626,,,5071
-118.2048,33.960049,291777,7-ELEVEN 18517 D,3507 Liberty Blvd,,South Gate,CA,90280,2419,LOS ANGELES,Convenience Store,33.960049,-118.2048,,,5130
-118.62347,34.192383,291916,Trader Joe's 50,6751 Fallbrook Ave,,West Hills,CA,91307,3948,LOS ANGELES,Supermarket,34.192383,-118.62347,,,5142
-118.31876,34.188244,291955,RALPHS 712,1100 N San Fernando Blvd,,Burbank,CA,91504,4330,LOS ANGELES,Super Store,34.188244,-118.31876,,,5146
-118.11113,34.102386,292192,7-Eleven 23289B,805 W Las Tunas Dr,,San Gabriel,CA,91776,1070,LOS ANGELES,Convenience Store,34.102386,-118.11113,,,5164
-118.2009,34.108566,292613,La Tropicana Market Inc.,5200 Monte Vista St,,Los Angeles,CA,90042,4015,LOS ANGELES,Grocery Store,34.108566,-118.2009,,,5172
-118.1697,34.111748,232938,FOREMOST LIQUOR MARKET,301 Monterey Rd,,South Pasadena,CA,91030,3524,LOS ANGELES,Convenience Store,34.111748,-118.1697,,,5284
-118.54516,34.220551,312659,7-Eleven 13891 G,18916 Roscoe Blvd,,Northridge,CA,91324,4418,LOS ANGELES,Convenience Store,34.220551,-118.54516,,,5406
-117.88269,34.128826,233125,Stater Bros. Markets 57,1145 E Alosta Ave,,Azusa,CA,91702,2740,LOS ANGELES,Supermarket,34.128826,-117.88269,,,5489
-118.01201,34.140186,233144,Trader Joe's 112,604 W Huntington Dr,,Monrovia,CA,91016,3206,LOS ANGELES,Supermarket,34.140186,-118.01201,,,5513
-118.05327,34.10767,312869,CVS Pharmacy 5170,9952 Las Tunas Dr,,Temple City,CA,91780,2212,LOS ANGELES,Other,34.10767,-118.05327,,,5541
-117.92793,34.009651,312930,ENSENADA MEAT,17259 Valley Blvd,,La Puente,CA,91744,5658,LOS ANGELES,Grocery Store,34.009651,-117.92793,,,5588
-118.3092,34.087872,233395,SMART & FINAL 363,939 N Western Ave,,Los Angeles,CA,90029,3246,LOS ANGELES,Super Store,34.087872,-118.3092,,,5687
-118.02172,34.052345,313193,Ted's Quality Market,2514 Durfee Ave,,El Monte,CA,91732,3709,LOS ANGELES,Convenience Store,34.052345,-118.02172,,,5728
-118.25808,34.12867,309765,VONS 2254,311 W Los Feliz Rd,,Glendale,CA,91204,2513,LOS ANGELES,Supermarket,34.12867,-118.25808,,,5750
-118.34793,34.097973,309796,SHALOM PRODUCE INC.,7222 W Sunset Blvd,,Los Angeles,CA,90046,3406,LOS ANGELES,Grocery Store,34.097973,-118.34793,,,5781
-118.20769,33.888577,294420,99 CENTS ONLY STORES  197,1320 E Alondra Blvd,,Compton,CA,90221,4402,LOS ANGELES,Other,33.888577,-118.20769,,,5885
-118.40967,34.201267,233796,99 CENTS ONLY STORES  61,12711 Sherman Way,,North Hollywood,CA,91605,5032,LOS ANGELES,Other,34.201267,-118.40967,,,5948
-118.26749,34.020203,381881,MAPLE LIQUOR MARKET,3000 Maple Ave,,Los Angeles,CA,90011,1924,LOS ANGELES,Convenience Store,34.020203,-118.26749,,,6016
-118.33941,34.040424,333004,PICKFORD MARKET,4566 Pickford St,,Los Angeles,CA,90019,5817,LOS ANGELES,Grocery Store,34.040424,-118.33941,GusNIP,California Department of Food and Agriculture,6066
-118.13232,34.168861,333120,FOOD 4 LESS 327,1329 N Lake Ave,,Pasadena,CA,91104,2895,LOS ANGELES,Super Store,34.168861,-118.13232,,,6078
-117.90786,34.07711,379789,STATER BROS. MARKETS 106,375 N Azusa Ave,,West Covina,CA,91791,1346,LOS ANGELES,Supermarket,34.07711,-117.90786,,,6135
-118.19368,33.811417,313705,PACIFIC MARKET,2990 Pacific Ave,,Long Beach,CA,90806,1417,LOS ANGELES,Convenience Store,33.811417,-118.19368,,,6138
-117.90813,34.050442,331447,7-ELEVEN 29939 B,1347 S Azusa Ave,,West Covina,CA,91791,    ,LOS ANGELES,Convenience Store,34.050442,-117.90813,,,6148
-118.23682,34.222294,382000,Ralphs Fresh Fare 1,2675 Foothill Blvd,,La Crescenta,CA,91214,3511,LOS ANGELES,Super Store,34.222294,-118.23682,,,6169
-118.00621,33.948807,382283,Trader Joe's 48,15025 Whittier Blvd,,Whittier,CA,90603,2066,LOS ANGELES,Supermarket,33.948807,-118.00621,,,6194
-118.30166,34.057682,382642,JONS MARKET 3,3334 W 8th St,,Los Angeles,CA,90005,2435,LOS ANGELES,Supermarket,34.057682,-118.30166,,,6213
-118.22057,33.955616,382749,ELIZABETH BAKERY,2828 Firestone Blvd,,South Gate,CA,90280,    ,LOS ANGELES,Specialty Store,33.955616,-118.22057,,,6225
-117.73678,34.058125,379813,JAY'S LIQUOR,1006 E 2nd St,,Pomona,CA,91766,2110,LOS ANGELES,Convenience Store,34.058125,-117.73678,,,6361
-118.2429,34.154797,314997,VONS 1707,561 N Glendale Ave,,Glendale,CA,91206,3307,LOS ANGELES,Supermarket,34.154797,-118.2429,,,6369
-118.16776,33.775276,315015,7-ELEVEN 16569 C,1994 E 7th St,,Long Beach,CA,90813,5105,LOS ANGELES,Convenience Store,33.775276,-118.16776,,,6378
-118.26555,34.135647,313984,V & V ARMASH PRODUCE,541 W Garfield Ave,,Glendale,CA,91204,1801,LOS ANGELES,Grocery Store,34.135647,-118.26555,,,6415
-118.3959,33.896004,314491,Ralphs Fresh Fare 166,2700 N Sepulveda Blvd,,Manhattan Beach,CA,90266,2726,LOS ANGELES,Super Store,33.896004,-118.3959,,,6458
-118.24522,34.003902,314671,GUMBO MARKET,1610 E Vernon Ave,,Los Angeles,CA,90011,3851,LOS ANGELES,Convenience Store,34.003902,-118.24522,,,6473
-118.27831,34.009087,331581,UNO PRODUCE MARKET,4100 S Broadway,,Los Angeles,CA,90037,2221,LOS ANGELES,Supermarket,34.009087,-118.27831,,,6493
-118.55642,34.412975,273350,Whole Foods Market 10178,24130 Valencia Blvd,,Santa Clarita,CA,91355,5392,LOS ANGELES,Super Store,34.412975,-118.55642,,,6587
-117.97782,34.041073,331836,NELSON PRODUCE MARKET,14240 Nelson Ave,,City of Industry,CA,91746,2641,LOS ANGELES,Grocery Store,34.041073,-117.97782,,,6644
-118.35062,34.062378,380136,Ralphs Fresh Fare 289,5601 Wilshire Blvd,,Los Angeles,CA,90036,3701,LOS ANGELES,Super Store,34.062378,-118.35062,,,6696
-118.0715,33.831371,273766,FOOD 4 LESS 775,12222 Carson St,,Hawaiian Gardens,CA,90716,1602,LOS ANGELES,Super Store,33.831371,-118.0715,,,6735
-118.3479,33.930935,380469,SNAPPY FOOD MART & LIQUOR,4172 W Imperial Hwy,,Inglewood,CA,90304,2913,LOS ANGELES,Convenience Store,33.930935,-118.3479,,,6949
-118.59777,34.257298,381642,RALPHS 710,21431 Devonshire St,,Chatsworth,CA,91311,2935,LOS ANGELES,Super Store,34.257298,-118.59777,,,6980
-118.29473,33.822689,298430,MEYLER MARKET,22438 Meyler St,,Torrance,CA,90502,2338,LOS ANGELES,Convenience Store,33.822689,-118.29473,,,7030
-118.32475,34.191326,355431,Roys Produce Market & Liquor NONE,1627 N San Fernando Blvd,,Burbank,CA,91504,4123,LOS ANGELES,Grocery Store,34.191326,-118.32475,,,7081
-118.41727,33.994225,355716,Sanchez Meat Market,4525 Inglewood Blvd,,Culver City,CA,90230,5858,LOS ANGELES,Grocery Store,33.994225,-118.41727,,,7131
-118.18237,33.934177,295474,7-Eleven 18782 D,10648 Atlantic Ave,,Lynwood,CA,90262,2306,LOS ANGELES,Convenience Store,33.934177,-118.18237,,,7200
-118.36088,34.0909,295501,Whole Foods Market 10109,7871 Santa Monica Blvd,,West Hollywood,CA,90046,5344,LOS ANGELES,Super Store,34.0909,-118.36088,,,7202
-118.16035,33.910816,295900,MOBIL/POPEYES CHICKEN & BISCUITS,13745 Paramount Blvd,,South Gate,CA,90280,8236,LOS ANGELES,Convenience Store,33.910816,-118.16035,,,7240
-118.17744,33.885021,297105,Circle K 2725230,16408 Orange Ave,,Paramount,CA,90723,4849,LOS ANGELES,Convenience Store,33.885021,-118.17744,,,7300
-117.80639,34.106651,349075,CVS Pharmacy 4790,120 E Bonita Ave,,San Dimas,CA,91773,3003,LOS ANGELES,Other,34.106651,-117.80639,,,7351
-118.36096,34.090763,349116,T & Y Bakery,7862 Santa Monica Blvd,,West Hollywood,CA,90046,5313,LOS ANGELES,Specialty Store,34.090763,-118.36096,,,7360
-118.45748,34.201889,334777,LLOYD'S LIQUOR,7219 Kester Ave,,Van Nuys,CA,91405,2112,LOS ANGELES,Convenience Store,34.201889,-118.45748,,,7419
-118.34047,33.824284,334811,MARKET WORLD,3030 Sepulveda Blvd,,Torrance,CA,90505,2717,LOS ANGELES,Super Store,33.824284,-118.34047,,,7455
-118.20942,33.804363,296162,LI HOA SEAFOOD MARKET,1320 W Willow St,Ste E,Long Beach,CA,90810,3100,LOS ANGELES,Grocery Store,33.804363,-118.20942,,,7470
-118.37028,34.186489,357138,7-ELEVEN 20401 D,6364 Vineland Ave,,North Hollywood,CA,91606,3722,LOS ANGELES,Convenience Store,34.186489,-118.37028,,,7473
-118.1829,34.115311,356046,99 CENTS ONLY STORES  125,6235 York Blvd,,Los Angeles,CA,90042,3637,LOS ANGELES,Other,34.115311,-118.1829,,,7497
-118.36142,34.064751,297234,99 CENTS ONLY STORES  16,601 S Fairfax Ave,,Los Angeles,CA,90036,3609,LOS ANGELES,Other,34.064751,-118.36142,,,7501
-118.36137,33.937893,335012,C & J Liquor,10805 S Inglewood Ave,,Lennox,CA,90304,2184,LOS ANGELES,Convenience Store,33.937893,-118.36137,,,7539
-118.23569,34.102985,335029,SUPER A FOODS INC 7,2925 Division St,,Los Angeles,CA,90065,1215,LOS ANGELES,Super Store,34.102985,-118.23569,,,7542
-118.34326,33.930923,357330,MOHAMAD POURNAMDARI INC.,3950 W Imperial Hwy,,Inglewood,CA,90303,2610,LOS ANGELES,Convenience Store,33.930923,-118.34326,,,7609
-118.57427,34.381878,290183,RALPHS 757,24975 Pico Canyon Rd,,Stevenson Ranch,CA,91381,1708,LOS ANGELES,Super Store,34.381878,-118.57427,,,7630
-118.34976,34.062347,357354,SMART & FINAL 371,5555 Wilshire Blvd,,Los Angeles,CA,90036,3808,LOS ANGELES,Super Store,34.062347,-118.34976,,,7640
-118.11125,34.57959,347500,Sam's Market & Liquor,1013 E Palmdale Blvd,,Palmdale,CA,93550,4737,LOS ANGELES,Convenience Store,34.57959,-118.11125,,,7652
-118.29171,34.085869,335166,GOLFO DE FONSECA MARKET,804 N Vermont Ave,,Los Angeles,CA,90029,3517,LOS ANGELES,Convenience Store,34.085869,-118.29171,,,7667
-118.06553,33.88781,296508,Stater Bros. Markets 70,12523 Alondra Blvd,,Norwalk,CA,90650,7351,LOS ANGELES,Supermarket,33.88781,-118.06553,,,7683
-118.16502,33.959042,356465,EASTERN FISH MARKET INC,8044 Eastern Ave,,Bell Gardens,CA,90201,6107,LOS ANGELES,Grocery Store,33.959042,-118.16502,,,7794
-118.39723,34.164803,347763,Jons Marketplace 16,12122 Magnolia Blvd,,North Hollywood,CA,91607,2620,LOS ANGELES,Supermarket,34.164803,-118.39723,,,7847
-118.14145,34.013107,289355,EL REGALO DE MICHOACAN,6077 E Olympic Blvd,,Los Angeles,CA,90022,5212,LOS ANGELES,Grocery Store,34.013107,-118.14145,,,7872
-118.28848,34.166058,298051,99 CENTS ONLY STORES  54,6401 San Fernando Rd,,Glendale,CA,91201,2106,LOS ANGELES,Other,34.166058,-118.28848,,,7982
-118.34808,34.098026,352974,RALPHS GROCERY COMPANY 100,7257 W Sunset Blvd,,Los Angeles,CA,90046,3491,LOS ANGELES,Super Store,34.098026,-118.34808,,,8192
-118.06308,33.917671,353120,BRUCE'S LIQUOR STORE INC.,12623 Imperial Hwy,,Santa Fe Springs,CA,90670,4751,LOS ANGELES,Convenience Store,33.917671,-118.06308,,,8207
-118.30902,34.060799,353232,RALPHS GROCERY CO. 16,670 S Western Ave,,Los Angeles,CA,90005,3024,LOS ANGELES,Super Store,34.060799,-118.30902,,,8218
-117.74106,34.079292,351866,7-ELEVEN 33092 A,2055 N Towne Ave,,Pomona,CA,91767,2420,LOS ANGELES,Convenience Store,34.079292,-117.74106,,,8260
-118.34402,34.086922,383360,99 Cents Only Store 84,852 N la Brea Ave,,Los Angeles,CA,90038,3341,LOS ANGELES,Other,34.086922,-118.34402,,,8366
-118.11647,34.06263,385810,TAK SHING HONG,401 E Garvey Ave,,Monterey Park,CA,91755,1906,LOS ANGELES,Other,34.06263,-118.11647,,,8399
-118.14912,34.018627,386187,El Super 3,5646 Whittier Blvd,,Commerce,CA,90022,4106,LOS ANGELES,Supermarket,34.018627,-118.14912,,,8432
-118.26975,34.011112,383372,L.A. MARKET,246 E Martin Luther King Jr Blvd,,Los Angeles,CA,90011,2651,LOS ANGELES,Grocery Store,34.011112,-118.26975,,,8471
-118.32586,33.959927,451793,S & H LIQUOR,3006 W Manchester Blvd,,Inglewood,CA,90305,2339,LOS ANGELES,Convenience Store,33.959927,-118.32586,,,8483
-118.49272,34.201073,451836,FOOD 4 LESS  323,16530 Sherman Way,,Van Nuys,CA,91406,3731,LOS ANGELES,Super Store,34.201073,-118.49272,,,8508
-118.34397,33.94146,351535,Alta Dena Express,10411 S Prairie Ave,,Inglewood,CA,90303,1820,LOS ANGELES,Convenience Store,33.94146,-118.34397,,,8533
-118.27766,34.055122,451984,Just 99 Stores Inc,756 S Alvarado St,,Los Angeles,CA,90057,4020,LOS ANGELES,Convenience Store,34.055122,-118.27766,,,8581
-118.28798,34.098122,350656,VONS 2665,4520 W Sunset Blvd,,Los Angeles,CA,90027,6057,LOS ANGELES,Supermarket,34.098122,-118.28798,,,8632
-118.11736,33.890202,349543,Walgreens 07403,15740 Woodruff Ave,,Bellflower,CA,90706,4018,LOS ANGELES,Other,33.890202,-118.11736,,,8654
-118.24781,33.99588,384074,MICHOACAN MEAT MARKET,5137 Compton Ave,,Los Angeles,CA,90011,4913,LOS ANGELES,Grocery Store,33.99588,-118.24781,,,8755
-118.3812,33.919029,384084,Los Angeles AFB Commissary 1719,483 N Aviation Blvd,B 251,El Segundo,CA,90245,2808,LOS ANGELES,Supermarket,33.919029,-118.3812,,,8756
-118.15056,34.152451,349664,SMART & FINAL 370,401 N Fair Oaks Ave,,Pasadena,CA,91103,3620,LOS ANGELES,Super Store,34.152451,-118.15056,,,8789
-118.0474,34.062752,385246,LA MEXICANA BAKERY,10147 GARVEY AVE,,South El Monte,CA,91733,    ,LOS ANGELES,Other,34.062752,-118.0474,,,8842
-118.17236,34.690582,452592,FOOD 4 LESS 306,44455 Valley Central Way,,Lancaster,CA,93536,6529,LOS ANGELES,Super Store,34.690582,-118.17236,,,8969
-118.18817,34.040459,436529,LOPEZ MARKET,3538 E Cesar E Chavez Ave,,Los Angeles,CA,90063,2239,LOS ANGELES,Convenience Store,34.040459,-118.18817,,,9054
-118.31071,34.102192,436848,ROYAL GROCERY & DELI,1710 Garfield Pl,,Los Angeles,CA,90028,5904,LOS ANGELES,Grocery Store,34.102192,-118.31071,,,9089
-118.39263,34.143475,436939,Trader Joe's 122,11976 Ventura Blvd,,Studio City,CA,91604,2606,LOS ANGELES,Supermarket,34.143475,-118.39263,,,9098
-117.75304,34.078754,340987,SMART & FINAL 308,160 W Willow St,,Pomona,CA,91768,1828,LOS ANGELES,Super Store,34.078754,-117.75304,,,9144
-118.43907,34.186615,282590,Gigi's Liquor,14038 Victory Blvd,,Van Nuys,CA,91401,2226,LOS ANGELES,Convenience Store,34.186615,-118.43907,,,9231
-118.2613,34.055218,282638,BIXEL LIQUOR STORE,467 S Bixel St,,Los Angeles,CA,90017,1439,LOS ANGELES,Convenience Store,34.055218,-118.2613,,,9234
-118.27402,34.059189,354623,SAM'S CORNER LIQUOR,2001 W 6th St,,Los Angeles,CA,90057,3165,LOS ANGELES,Convenience Store,34.059189,-118.27402,,California Department of Food and Agriculture,9334
-118.1824,34.660309,340134,Stater Bros. Markets 146,2845 W Avenue L,,Lancaster,CA,93536,4022,LOS ANGELES,Supermarket,34.660309,-118.1824,,,9362
-118.61353,34.201088,340610,RALPHS  721,22333 Sherman Way,,Canoga Park,CA,91303,1050,LOS ANGELES,Super Store,34.201088,-118.61353,,,9410
-118.30884,33.752975,340704,RALPHS GROCERY COMPANY 87,1050 N Western Ave,,San Pedro,CA,90732,2428,LOS ANGELES,Super Store,33.752975,-118.30884,,,9415
-118.10025,33.985081,434975,J.B. Liquor and JR. Market,8729 Washington Blvd,,Pico Rivera,CA,90660,3726,LOS ANGELES,Convenience Store,33.985081,-118.10025,,,9603
-118.35189,34.15218,341569,Trader Joe's 54,10130 Riverside Dr,,Toluca Lake,CA,91602,2532,LOS ANGELES,Supermarket,34.15218,-118.35189,,,9646
-118.27401,33.983978,435835,ROY'S MARKET,6127 S Main St,,Los Angeles,CA,90003,1237,LOS ANGELES,Convenience Store,33.983978,-118.27401,,,9736
-118.30013,34.174213,341793,RALPHS GROCERY CO.  193,25 E Alameda Ave,,Burbank,CA,91502,2029,LOS ANGELES,Super Store,34.174213,-118.30013,,,9779
-118.27818,34.070065,435988,SMART & FINAL 459,2720 Beverly Blvd,,Los Angeles,CA,90057,1008,LOS ANGELES,Super Store,34.070065,-118.27818,,,9804
-118.26537,33.791023,341875,EDDIE LIQUOR JR MARKET,222 W Pacific Coast Hwy,,Wilmington,CA,90744,2522,LOS ANGELES,Convenience Store,33.791023,-118.26537,,,9826
-117.93482,34.036201,436047,ENSENADA MEAT MARKET 2,16047 E AMAR ROAD,,VALINDA,CA,91744,    ,LOS ANGELES,Grocery Store,34.036201,-117.93482,,,9848
-118.19961,33.943508,436166,Dollar Club,4100 Tweedy Blvd,,South Gate,CA,90280,6149,LOS ANGELES,Convenience Store,33.943508,-118.19961,,,9878
-118.34391,33.920502,255929,FRANK'S LIQUOR,12329 Prairie Ave,,Hawthorne,CA,90250,4020,LOS ANGELES,Convenience Store,33.920502,-118.34391,,,9889
-118.38053,33.901756,255962,Trader Joe's 106,1800 ROSECRANS BLVD,,Manhattan Beach,CA,90266,    ,LOS ANGELES,Supermarket,33.901756,-118.38053,,,9901
-118.201,33.804699,255993,Ken's Island Food,747 W Willow St,,Long Beach,CA,90806,2834,LOS ANGELES,Grocery Store,33.804699,-118.201,,,9905
-118.28582,33.818222,281708,7-ELEVEN #13724 C,22829 Figueroa St,,Carson,CA,90745,4633,LOS ANGELES,Convenience Store,33.818222,-118.28582,,,9908
-118.19234,33.776371,354381,Rainbow Seafood Market Inc.,754 Pine Ave,,Long Beach,CA,90813,4417,LOS ANGELES,Other,33.776371,-118.19234,,,10000
-118.08276,33.903912,318115,99 CENTS ONLY STORES  32,14029 Pioneer Blvd,,Norwalk,CA,90650,3923,LOS ANGELES,Other,33.903912,-118.08276,,,10046
-118.08619,34.558128,318349,FOOD 4 LESS 360,2341 E Avenue S,,Palmdale,CA,93550,6201,LOS ANGELES,Super Store,34.558128,-118.08619,,,10070
-118.14378,33.93412,318549,99 Cents Only Store 67,11916 Paramount Blvd,,Downey,CA,90241,    ,LOS ANGELES,Other,33.93412,-118.14378,,,10086
-118.29149,34.035553,316736,3 STAR DISCOUNT,2222 S Vermont Ave,,Los Angeles,CA,90007,1655,LOS ANGELES,Convenience Store,34.035553,-118.29149,,,10129
-118.3796,34.208492,318973,Saticoy Liquor,11415 Saticoy St,,North Hollywood,CA,91605,2928,LOS ANGELES,Convenience Store,34.208492,-118.3796,,,10151
-118.44772,34.172039,300600,RALPHS 702,14440 Burbank Blvd,,Sherman Oaks,CA,91401,4823,LOS ANGELES,Super Store,34.172039,-118.44772,,,10163
-118.17535,34.087284,257462,EL SERENO MEAT MARKET,4944 Huntington Dr S,,Los Angeles,CA,90032,1627,LOS ANGELES,Supermarket,34.087284,-118.17535,,,10198
-118.30377,34.047192,258049,H.L. FOODSERVICE CO.,2920 W Pico Blvd,,Los Angeles,CA,90006,3818,LOS ANGELES,Other,34.047192,-118.30377,,,10249
-118.46397,34.318634,258160,El Rancho Plaza Market,13566 Glenoaks Blvd,,Sylmar,CA,91342,1314,LOS ANGELES,Grocery Store,34.318634,-118.46397,,,10259
-118.25335,34.025696,240693,CRESCENT POULTRY INC.,1000 E Washington Blvd,Ste 117,Los Angeles,CA,90021,3070,LOS ANGELES,Specialty Store,34.025696,-118.25335,,,10276
-118.35307,34.070347,256677,7-ELEVEN 17304,6077 W 3rd St,,Los Angeles,CA,90036,3140,LOS ANGELES,Convenience Store,34.070347,-118.35307,,,10360
-118.40176,34.021503,240873,ASIA FOODS,10200 Venice Blvd,Ste 105,Culver City,CA,90232,3347,LOS ANGELES,Grocery Store,34.021503,-118.40176,,,10497
-118.53318,34.193878,315755,VALLEY PRODUCE & DELI,18345 Vanowen St,,Reseda,CA,91335,5439,LOS ANGELES,Super Store,34.193878,-118.53318,,,10616
-117.96694,34.085663,317327,RAMIREZ MEAT MARKET TORTILLERIA,4005 La Rica Ave,,Baldwin Park,CA,91706,3130,LOS ANGELES,Grocery Store,34.085663,-117.96694,,,10680
-118.19682,34.045906,315883,MALABAR MARKET,3054 Malabar St,,Los Angeles,CA,90063,4017,LOS ANGELES,Convenience Store,34.045906,-118.19682,,,10692
-118.26521,33.914501,241164,Best Bargain,13010 Avalon Blvd,,Los Angeles,CA,90061,2736,LOS ANGELES,Other,33.914501,-118.26521,,,10743
-118.03111,34.07299,319538,99 CENTS ONLY STORES  52,11114 Ramona Blvd,,El Monte,CA,91731,3139,LOS ANGELES,Other,34.07299,-118.03111,,,10769
-118.57215,34.220295,316191,Jons Marketplace 15,20151 Roscoe Blvd,,Winnetka,CA,91306,1627,LOS ANGELES,Supermarket,34.220295,-118.57215,,,10861
-118.00587,34.140259,319700,Baja Ranch Market 1,328 W Huntington Dr,,Monrovia,CA,91016,3304,LOS ANGELES,Super Store,34.140259,-118.00587,,,10877
-118.20594,34.046036,317790,DOLLAR MAX 4,2457 E Cesar E Chavez Ave,,Los Angeles,CA,90033,3001,LOS ANGELES,Convenience Store,34.046036,-118.20594,,,10881
-118.1313,33.939045,299101,CVS Pharmacy 3986,8400 Firestone Blvd,,Downey,CA,90241,3844,LOS ANGELES,Other,33.939045,-118.1313,,,10889
-118.29979,34.101788,316455,Nairi Meat & Deli,5065 Hollywood Blvd,Ste 108,Los Angeles,CA,90027,    ,LOS ANGELES,Grocery Store,34.101788,-118.29979,,,10987
-117.96049,34.09079,396770,RAINBOW SEAFOOD MARKET 2,4303 Maine Ave,Ste 107,Baldwin Park,CA,91706,2395,LOS ANGELES,Other,34.09079,-117.96049,,,11004
-118.25788,34.136932,396883,A's Liquor Mart,715 S Central Ave,,Glendale,CA,91204,4345,LOS ANGELES,Convenience Store,34.136932,-118.25788,,,11017
-118.113,34.010967,397467,Superior Grocers 106,1201 W Whittier Blvd,,Montebello,CA,90640,4642,LOS ANGELES,Supermarket,34.010967,-118.113,,,11072
-117.97458,34.542858,397536,JOSHUA LIQ & JR MKT.,8714 E Avenue T,And B Unit A,Littlerock,CA,93543,1820,LOS ANGELES,Convenience Store,34.542858,-117.97458,,,11083
-118.19539,33.931747,397670,Gatewood Liquor,3881 E Imperial Hwy,,Lynwood,CA,90262,2257,LOS ANGELES,Convenience Store,33.931747,-118.19539,,,11092
-117.93233,33.998398,264904,Walmart 2251,17150 GALE AVE,,CITY OF INDUSTRY,CA,91745,    ,LOS ANGELES,Super Store,33.998398,-117.93233,,,11114
-118.56926,34.383381,265068,Walmart 2297,25450 THE OLD RD,,STEVENSON RANCH,CA,91381,    ,LOS ANGELES,Super Store,34.383381,-118.56926,,,11135
-118.17362,34.69249,265069,99 Cents Only Store 70,44601 Valley Central Way,,Lancaster,CA,93536,6500,LOS ANGELES,Other,34.69249,-118.17362,,,11136
-118.29624,34.069069,265107,JONS MARKET 1,3667 W 3rd St,,Los Angeles,CA,90020,2042,LOS ANGELES,Supermarket,34.069069,-118.29624,,,11141
-118.41396,34.157684,265731,Whole Foods Market 10784,12905 Riverside Dr,,Sherman Oaks,CA,91423,2209,LOS ANGELES,Super Store,34.157684,-118.41396,,,11198
-118.22249,33.973797,302528,MI VIEJO SAN JUAN MARKET,7213 Seville Ave,,Huntington Park,CA,90255,5740,LOS ANGELES,Grocery Store,33.973797,-118.22249,,,11230
-118.51767,34.19381,323101,ARAX GROCERY & DELI,17644 Vanowen St,,Van Nuys,CA,91406,4315,LOS ANGELES,Grocery Store,34.19381,-118.51767,,,11317
-118.243,34.037968,323148,C & C MARKET INC,1106 E 7th St,,Los Angeles,CA,90021,1504,LOS ANGELES,Convenience Store,34.037968,-118.243,,,11323
-118.39655,34.190712,302725,SMART & FINAL 374,6601 Laurel Canyon Blvd,,North Hollywood,CA,91606,1522,LOS ANGELES,Super Store,34.190712,-118.39655,,,11393
-118.38506,34.18219,396199,Superior Grocers 118,6140 Lankershim Blvd,,North Hollywood,CA,91606,4808,LOS ANGELES,Supermarket,34.18219,-118.38506,,,11515
-118.29908,33.723179,396321,ALMA MARKET,2305 S Alma St,,San Pedro,CA,90731,5714,LOS ANGELES,Convenience Store,33.723179,-118.29908,,,11528
-118.13301,34.023689,398140,VICTORY LIQUOR,536 N Garfield Ave,,Montebello,CA,90640,1611,LOS ANGELES,Convenience Store,34.023689,-118.13301,,,11610
-118.30115,33.79446,301853,Yees Market,25304 Belle Porte Ave,,Harbor City,CA,90710,2820,LOS ANGELES,Convenience Store,33.79446,-118.30115,,,11618
-118.26582,33.779755,337733,FOOD 4 LESS  760,336 W Anaheim St,,Wilmington,CA,90744,4421,LOS ANGELES,Super Store,33.779755,-118.26582,,,11700
-118.11226,34.67495,336344,CHALLENGER LIQUOR,1004 E Avenue K,,Lancaster,CA,93535,4846,LOS ANGELES,Convenience Store,34.67495,-118.11226,,,11756
-118.45165,34.224899,336395,FOOD 4 LESS 314,8530 Tobias Ave,,Panorama City,CA,91402,2995,LOS ANGELES,Super Store,34.224899,-118.45165,,,11759
-117.82402,34.10656,336686,Trader Joe's 28,856 W Arrow Hwy,,San Dimas,CA,91773,2446,LOS ANGELES,Supermarket,34.10656,-117.82402,,,11781
-118.39855,34.069839,264376,Beverly Hills Market,303 N Crescent Dr,,Beverly Hills,CA,90210,4855,LOS ANGELES,Grocery Store,34.069839,-118.39855,,,11813
-118.16425,33.957134,264385,GALICIA'S MEAT MARKET,8214 Eastern Ave,,Bell Gardens,CA,90201,6111,LOS ANGELES,Grocery Store,33.957134,-118.16425,,,11817
-118.08219,33.862709,338813,PIONEER CASH & CARRY,18601 Pioneer Blvd,,Artesia,CA,90701,5629,LOS ANGELES,Other,33.862709,-118.08219,,,11852
-118.31098,33.831451,264557,RALPHS 132,1770 W Carson St,,Torrance,CA,90501,2821,LOS ANGELES,Super Store,33.831451,-118.31098,,,11902
-118.14149,33.9445,264584,Stater Bros. Markets 155,7814 E Firestone Blvd,,Downey,CA,90241,4221,LOS ANGELES,Supermarket,33.9445,-118.14149,,,11913
-118.1984,34.018791,264637,FOOD 4 LESS 330,3654 E Olympic Blvd,,Los Angeles,CA,90023,3129,LOS ANGELES,Super Store,34.018791,-118.1984,,,11923
-118.34589,34.017708,453940,7-Eleven 32831A,4501 W Martin Luther King Jr Blvd,,Los Angeles,CA,90016,5901,LOS ANGELES,Convenience Store,34.017708,-118.34589,,,12021
-118.17056,33.786156,326960,EAST 15TH STREET MARKET,1732 E 15th St,,Long Beach,CA,90813,2412,LOS ANGELES,Grocery Store,33.786156,-118.17056,,,12045
-118.27832,34.001801,324450,C & C LIQUOR & MARKET,4606 S Broadway,,Los Angeles,CA,90037,2730,LOS ANGELES,Convenience Store,34.001801,-118.27832,,,12135
-118.26088,34.118279,456387,KOPPER KEG LIQUOR,3237 Glendale Blvd,,Los Angeles,CA,90039,1831,LOS ANGELES,Convenience Store,34.118279,-118.26088,,,12173
-118.36982,34.186718,454043,CVS Pharmacy 4789,10945 Victory Blvd,,North Hollywood,CA,91606,3717,LOS ANGELES,Other,34.186718,-118.36982,,,12182
-118.38886,34.077156,458499,Ralphs Fresh Fare 724,9040 Beverly Blvd,,West Hollywood,CA,90048,2418,LOS ANGELES,Super Store,34.077156,-118.38886,,,12205
-118.20081,34.120281,457628,Super A Foods 11,5250 York Blvd,,Highland Park,CA,90042,1744,LOS ANGELES,Super Store,34.120281,-118.20081,,,12213
-118.21782,33.918259,457670,El Ahorro Market,2823 N Santa Fe Ave,,Compton,CA,90222,2325,LOS ANGELES,Convenience Store,33.918259,-118.21782,,,12217
-118.50291,34.235748,457952,7-ELEVEN 18818 B,17001 Nordhoff St,,Northridge,CA,91325,2626,LOS ANGELES,Convenience Store,34.235748,-118.50291,,,12246
-118.14263,33.791855,458104,RALPHS GROCERY COMPANY 186,1930 N Lakewood Blvd,,Long Beach,CA,90815,2714,LOS ANGELES,Super Store,33.791855,-118.14263,,,12265
-118.33018,33.790039,458171,Trader Joe's 29,2545 Pacific Coast Hwy,Ste B,Torrance,CA,90505,7035,LOS ANGELES,Supermarket,33.790039,-118.33018,,,12272
-118.35941,34.18483,458286,NELSONS LIQUOR,4420 W Victory Blvd,,Burbank,CA,91505,1335,LOS ANGELES,Convenience Store,34.18483,-118.35941,,,12279
-118.58929,34.250038,327070,SAMS MINI MARKET,20909 Lassen St,,Chatsworth,CA,91311,4285,LOS ANGELES,Convenience Store,34.250038,-118.58929,,,12316
-118.29098,34.086521,1575364,Al Iman Super Store,4350 Normal Ave,,Los Angeles,CA,90029,2705,LOS ANGELES,Convenience Store,34.086521,-118.29098,,,12374
-118.44904,34.193661,453476,99 CENTS ONLY STORES 81,6755 Van Nuys Blvd,VANOWEN,Van Nuys,CA,91405,4610,LOS ANGELES,Other,34.193661,-118.44904,,,12394
-118.45409,34.228073,453688,SMILEY'S MARKET,14712 Parthenia St,Ste A,Panorama City,CA,91402,2992,LOS ANGELES,Convenience Store,34.228073,-118.45409,,,12409
-117.89115,33.988731,326468,Greenland Market,18901 Colima Rd,,Rowland Heights,CA,91748,2942,LOS ANGELES,Super Store,33.988731,-117.89115,,,12498
-118.4653,34.201092,454326,CVS Pharmacy 4792,15232 Sherman Way,,Van Nuys,CA,91405,2022,LOS ANGELES,Other,34.201092,-118.4653,,,12572
-117.8719,34.136059,456703,VONS 2169,435 W Foothill Blvd,,Glendora,CA,91741,3363,LOS ANGELES,Supermarket,34.136059,-117.8719,,,12593
-118.00759,33.949257,458614,RALPHS GROCERY COMPANY 64,14919 Whittier Blvd,,Whittier,CA,90605,1793,LOS ANGELES,Super Store,33.949257,-118.00759,,,12594
-118.01685,34.061535,456782,BOTTLE 'N CORK LIQUOR,12086 Valley Blvd,,El Monte,CA,91732,3137,LOS ANGELES,Convenience Store,34.061535,-118.01685,,,12633
-118.29549,34.095348,499901,FOUNTAIN MINI MARKET,4878 Fountain Ave,,Los Angeles,CA,90029,1654,LOS ANGELES,Convenience Store,34.095348,-118.29549,,,12818
-118.34991,34.090004,499905,SMART & FINAL 474,1041 N Fuller Ave,,West Hollywood,CA,90046,6603,LOS ANGELES,Super Store,34.090004,-118.34991,,,12828
-118.13882,33.791222,457348,VONS 3076,1820 Ximeno Ave,,Long Beach,CA,90815,2849,LOS ANGELES,Supermarket,33.791222,-118.13882,,,12858
-118.21759,33.831806,455047,DELA LIQUOR,2721 E Carson St,,Carson,CA,90810,1511,LOS ANGELES,Convenience Store,33.831806,-118.21759,,,12904
-117.73663,34.048206,455399,7-ELEVEN 13946 A,1001 E Grand Ave,,Pomona,CA,91766,3733,LOS ANGELES,Convenience Store,34.048206,-117.73663,,,12931
-118.31779,34.04039,455452,ROSIE'S DISCOUNT STORE,1851 Arlington Ave,,Los Angeles,CA,90019,6225,LOS ANGELES,Convenience Store,34.04039,-118.31779,,,12936
-118.18176,34.028473,455504,Yoly's Market #2,531 S Bonnie Beach Pl,,Los Angeles,CA,90063,1508,LOS ANGELES,Grocery Store,34.028473,-118.18176,,,12941
-118.53301,34.193825,455797,Food 4 Less 348,18318 Vanowen St,,Reseda,CA,91335,5438,LOS ANGELES,Super Store,34.193825,-118.53301,,,12964
-118.44949,34.307484,372864,COUNTRY COUSINS LIQUOR,13040 Glenoaks Blvd,,Sylmar,CA,91342,4030,LOS ANGELES,Convenience Store,34.307484,-118.44949,,,13021
-117.90787,34.081478,361035,FOOD 4 LESS 337,615 N Azusa Ave,,West Covina,CA,91791,1103,LOS ANGELES,Super Store,34.081478,-117.90787,,,13058
-118.46843,34.001377,361186,99 CENTS ONLY STORES 92,201 Lincoln Blvd,,Venice,CA,90291,2809,LOS ANGELES,Other,34.001377,-118.46843,,,13071
-118.0792,34.704353,362010,TUPACK'S LIQUOR,2802 E Avenue I,,Lancaster,CA,93535,2302,LOS ANGELES,Convenience Store,34.704353,-118.0792,,,13155
-117.88844,33.996464,373010,99 Ranch Market 3,1015 S Nogales St,,Rowland Heights,CA,91748,    ,LOS ANGELES,Super Store,33.996464,-117.88844,,,13229
-118.2608,34.029156,362131,99 CENTS ONLY STORES  62,422 E Washington Blvd,,Los Angeles,CA,90015,3721,LOS ANGELES,Other,34.029156,-118.2608,,,13260
-118.16988,34.089272,362345,Big Saver Foods 2,5168 Huntington Dr S,,Los Angeles,CA,90032,1703,LOS ANGELES,Super Store,34.089272,-118.16988,,,13281
-118.11495,34.145985,362377,99 Cents Only Store 98,1720 E Colorado Blvd,,Pasadena,CA,91106,2115,LOS ANGELES,Other,34.145985,-118.11495,,,13286
-118.30547,33.988525,362571,SUNNY MARKET,1600 W Slauson Ave,T-31,Los Angeles,CA,90047,1117,LOS ANGELES,Convenience Store,33.988525,-118.30547,,,13299
-118.1904,34.200066,362654,Ralphs Fresh Fare 55,521 Foothill Blvd,,La Canada,CA,91011,3507,LOS ANGELES,Super Store,34.200066,-118.1904,,,13308
-117.95567,34.00861,360283,7-Eleven Food Store 23961,16107 Gale Ave,,City of Industry,CA,91745,1709,LOS ANGELES,Convenience Store,34.00861,-117.95567,,,13481
-118.39572,34.144714,321160,VONS  1674,4033 Laurel Canyon Blvd,,Studio City,CA,91604,2016,LOS ANGELES,Supermarket,34.144714,-118.39572,,,13504
-118.12972,34.675426,358062,Bootleggers2,111 E Avenue K,,Lancaster,CA,93535,4637,LOS ANGELES,Convenience Store,34.675426,-118.12972,,,13574
-118.30777,34.043518,358331,Beto's Market,2252 Venice Blvd,,Los Angeles,CA,90006,5115,LOS ANGELES,Grocery Store,34.043518,-118.30777,,,13588
-118.34384,33.931522,358546,PALACE SURPLUS INC.,11312 S Prairie Ave,,Inglewood,CA,90303,2616,LOS ANGELES,Grocery Store,33.931522,-118.34384,,,13606
-118.17402,34.693756,358650,Walmart 1563,44665 VALLEY CENTRAL WAY,,LANCASTER,CA,93536,    ,LOS ANGELES,Super Store,34.693756,-118.17402,,,13616
-118.39646,34.156666,358797,GELSONS MARKET 3,4738 Laurel Canyon Blvd,,Valley Village,CA,91607,3912,LOS ANGELES,Supermarket,34.156666,-118.39646,,,13626
-118.1577,33.974609,360429,Gage Avenue Market,5956 Gage Ave,,Bell Gardens,CA,90201,1711,LOS ANGELES,Convenience Store,33.974609,-118.1577,,,13655
-118.01865,34.131306,321264,7-Eleven 16678D,922 W Duarte Rd,,Monrovia,CA,91016,7742,LOS ANGELES,Convenience Store,34.131306,-118.01865,,,13688
-118.15811,33.967262,360484,Hi-Bon Liquor,5985 Florence Ave,Ste H,Bell Gardens,CA,90201,6701,LOS ANGELES,Convenience Store,33.967262,-118.15811,,,13698
-118.09886,34.079754,321999,HAWAII SUPER MARKET,120 E Valley Blvd,,San Gabriel,CA,91776,3500,LOS ANGELES,Super Store,34.079754,-118.09886,,,13725
-118.36144,33.923595,371800,7-Eleven Store 16848C 16848C,4800 W 120th St,,Hawthorne,CA,90250,2725,LOS ANGELES,Convenience Store,33.923595,-118.36144,,,13728
-118.62621,34.187775,372217,Walmart 5152,6433 FALLBROOK AVE,,WEST HILLS,CA,91307,    ,LOS ANGELES,Super Store,34.187775,-118.62621,,,13744
-118.18975,34.018822,360612,Super Discount Market,3980 E Olympic Blvd,,Los Angeles,CA,90023,3248,LOS ANGELES,Grocery Store,34.018822,-118.18975,,,13751
-118.48212,34.012775,360730,ED'S LIQUOR STORE,825 Pico Blvd,,Santa Monica,CA,90405,1324,LOS ANGELES,Convenience Store,34.012775,-118.48212,,,13815
-118.1003,33.887192,321458,7 Eleven Store 33325 B,10962 Alondra Blvd,,Norwalk,CA,90650,5402,LOS ANGELES,Convenience Store,33.887192,-118.1003,,,13823
-118.12668,33.931953,360859,HALL MARKET LIQUOR,11534 Lakewood Blvd,Ste A,Downey,CA,90241,5280,LOS ANGELES,Convenience Store,33.931953,-118.12668,,,13836
-118.36555,34.22403,360894,J.B. LIQUOR,8474 Sunland Blvd,,Sun Valley,CA,91352,3436,LOS ANGELES,Convenience Store,34.22403,-118.36555,,,13862
-118.41451,34.164898,359978,RALPHS GROCERY COMPANY 63,12921 Magnolia Blvd,,Van Nuys,CA,91423,1618,LOS ANGELES,Super Store,34.164898,-118.41451,,,13884
-118.22173,34.204769,321700,VONS 2288,2039 Verdugo Blvd,,Montrose,CA,91020,1626,LOS ANGELES,Supermarket,34.204769,-118.22173,,,13957
-118.15041,34.112854,322449,VONS 3075,1129 Fair Oaks Ave,,South Pasadena,CA,91030,3311,LOS ANGELES,Supermarket,34.112854,-118.15041,,,13965
-118.0822,33.921425,442093,Shop N Go Food Store,12105 Pioneer Blvd,,Norwalk,CA,90650,1774,LOS ANGELES,Convenience Store,33.921425,-118.0822,,,14032
-118.39647,34.21619,442413,HANDY MART LIQUOR,8012 Laurel Canyon Blvd,,North Hollywood,CA,91605,1427,LOS ANGELES,Convenience Store,34.21619,-118.39647,,,14061
-118.35358,33.852757,442534,Trader Joe's 121,19720 Hawthorne Blvd,,Torrance,CA,90503,1553,LOS ANGELES,Supermarket,33.852757,-118.35358,,,14078
-118.16558,33.832405,437745,RALPHS 196,2250 E Carson St,,Long Beach,CA,90807,3044,LOS ANGELES,Super Store,33.832405,-118.16558,,,14110
-118.40747,34.017345,440673,RALPHS GROCERY COMPANY 86,3827 Culver Ctr,,Culver City,CA,90232,3365,LOS ANGELES,Super Store,34.017345,-118.40747,,,14111
-118.37027,34.179623,437790,VINELAND WINE CELLAR,6012 Vineland Ave,,North Hollywood,CA,91606,4912,LOS ANGELES,Convenience Store,34.179623,-118.37027,,,14125
-117.96535,34.085499,413434,99 Cents Only Store 72,14151 Ramona Blvd # A,,Baldwin Park,CA,91706,3100,LOS ANGELES,Other,34.085499,-117.96535,,,14168
-117.71915,34.081379,416143,WINE & LIQUOR MARKET,750 S Indian Hill Blvd,,Claremont,CA,91711,5450,LOS ANGELES,Convenience Store,34.081379,-117.71915,,,14274
-118.45256,34.045227,416443,Santa Monica Kosher Market,11540 Santa Monica Blvd,Ste 101,Los Angeles,CA,90025,7905,LOS ANGELES,Supermarket,34.045227,-118.45256,,,14296
-118.29778,33.79771,416531,GUANAJUATO MEAT MARKET INC,1206 Lomita Blvd,,Harbor City,CA,90710,2148,LOS ANGELES,Convenience Store,33.79771,-118.29778,,,14307
-118.50015,34.028149,416677,Pavilions 2231,820 Montana Ave,,Santa Monica,CA,90403,1503,LOS ANGELES,Supermarket,34.028149,-118.50015,,,14320
-118.19175,33.994556,440866,LA MICHOACANA MEAT MARKET,4045 E 52nd St,,Maywood,CA,90270,2205,LOS ANGELES,Grocery Store,33.994556,-118.19175,,,14337
-118.36658,33.858215,415752,99 Cents Only Store 65,5130 W 190th St,,Torrance,CA,90503,1005,LOS ANGELES,Other,33.858215,-118.36658,,,14437
-118.05666,34.123882,440919,VONS 3208,745 E Naomi Ave,,Arcadia,CA,91007,    ,LOS ANGELES,Supermarket,34.123882,-118.05666,,,14449
-118.27515,34.246037,441068,SMART & FINAL 414,6555 Foothill Blvd,,Tujunga,CA,91042,2728,LOS ANGELES,Super Store,34.246037,-118.27515,,,14535
-118.09246,33.918316,441075,Stater Bros. Markets 154,11300 Firestone Blvd,,Norwalk,CA,90650,2202,LOS ANGELES,Supermarket,33.918316,-118.09246,,,14538
-118.29281,34.052643,441082,HANNAM SUPER MKT,2740 W Olympic Blvd,,Los Angeles,CA,90006,2633,LOS ANGELES,Super Store,34.052643,-118.29281,,,14552
-118.46194,33.998547,439230,RALPHS 281,910 Lincoln Blvd,,Venice,CA,90291,3505,LOS ANGELES,Super Store,33.998547,-118.46194,,,14607
-117.95036,34.032055,412525,SONIA'S BAKERY,744 Glendora Ave,,La Puente,CA,91744,4015,LOS ANGELES,Convenience Store,34.032055,-117.95036,,,14636
-118.33068,33.931,438375,BAB'S FRESH DAIRY,3301 W Imperial Hwy,,Inglewood,CA,90303,2217,LOS ANGELES,Convenience Store,33.931,-118.33068,,,14717
-118.18676,34.023872,439383,AL SALAM FARM,3980 Whittier Blvd,,Los Angeles,CA,90023,2443,LOS ANGELES,Specialty Store,34.023872,-118.18676,,,14720
-118.06155,34.106625,412692,99 CENTS ONLY STORES 28,9565 Las Tunas Dr,,Temple City,CA,91780,2107,LOS ANGELES,Other,34.106625,-118.06155,,,14734
-117.90768,34.08704,439570,SMART & FINAL 367,114 N Azusa Ave,,Covina,CA,91722,3604,LOS ANGELES,Super Store,34.08704,-117.90768,,,14885
-118.13078,34.689423,441691,J'S LIQUOR & JR MARKET,120 W Avenue J,,Lancaster,CA,93534,3655,LOS ANGELES,Convenience Store,34.689423,-118.13078,,,14925
-118.3975,34.19117,441726,Katina Bakeries Inc,6631 Laurel Canyon Blvd,Ste 14,North Hollywood,CA,91606,1580,LOS ANGELES,Grocery Store,34.19117,-118.3975,,,14935
-118.03636,34.040459,437692,7-ELEVEN 25922 A,1533 Peck Rd,,El Monte,CA,91733,4529,LOS ANGELES,Convenience Store,34.040459,-118.03636,,,14993
-118.10517,33.810608,414497,Stater Bros. Markets 160,6501 E Spring St,,Long Beach,CA,90808,4023,LOS ANGELES,Supermarket,33.810608,-118.10517,,,14999
-117.88525,34.009987,474755,CANYON LIQUOR,19058 La Puente Rd,,West Covina,CA,91792,2832,LOS ANGELES,Convenience Store,34.009987,-117.88525,,,15003
-118.09579,34.579727,474809,Vallarta Supermarket 20,1803 E Palmdale Blvd,,Palmdale,CA,93550,2037,LOS ANGELES,Super Store,34.579727,-118.09579,,,15008
-118.18843,33.782009,373770,Kim Long Market,324 E Anaheim St,,Long Beach,CA,90813,    ,LOS ANGELES,Other,33.782009,-118.18843,,,15049
-118.66213,34.446674,374096,FAST STOP #2 VAL VERDE MKT,30169 San Martinez Rd,,Castaic,CA,91384,2466,LOS ANGELES,Convenience Store,34.446674,-118.66213,,,15090
-118.46581,34.228287,374256,Dale's Jr. Liquor Market,15313 Parthenia St,,North Hills,CA,91343,5105,LOS ANGELES,Convenience Store,34.228287,-118.46581,,,15106
-117.95723,34.023567,327153,Superior Grocers 114,151 S HACIENDA BLVD,,City of Industry,CA,91744,1102,LOS ANGELES,Supermarket,34.023567,-117.95723,,,15146
-118.15679,34.145714,327219,Ralphs Fresh Fare 743,320 W Colorado Blvd,,Pasadena,CA,91105,1824,LOS ANGELES,Super Store,34.145714,-118.15679,,,15204
-118.34389,33.89856,377790,7-Eleven 16480D,14627 Prairie Ave,,Lawndale,CA,90260,1830,LOS ANGELES,Convenience Store,33.89856,-118.34389,,,15209
-118.18862,33.85051,375769,52 MINI MART,359 E 52nd St,,Long Beach,CA,90805,6401,LOS ANGELES,Convenience Store,33.85051,-118.18862,,,15260
-118.37318,34.254593,376684,STALLION MARKET,10150 Stonehurst Ave,,Sun Valley,CA,91352,1129,LOS ANGELES,Convenience Store,34.254593,-118.37318,,,15280
-118.29192,33.964573,376040,SMART & FINAL 337,8137 S Vermont Ave,,Los Angeles,CA,90044,3535,LOS ANGELES,Super Store,33.964573,-118.29192,,,15292
-118.30547,34.090839,376381,Karabagh Meat Market,5363 Santa Monica Blvd,,Los Angeles,CA,90029,1105,LOS ANGELES,Grocery Store,34.090839,-118.30547,,,15316
-118.50906,34.193951,418506,Q MARKET & PRODUCE INC.,17261 Vanowen St,,Van Nuys,CA,91406,4438,LOS ANGELES,Supermarket,34.193951,-118.50906,,,15351
-118.21179,33.954807,377999,MALONEY MEAT COMPANY,3255 Firestone Blvd,,South Gate,CA,90280,2953,LOS ANGELES,Specialty Store,33.954807,-118.21179,,,15362
-118.05665,33.984955,378046,BALEY'S BEVERAGE BARN,11415 Whittier Blvd,,Whittier,CA,90601,3147,LOS ANGELES,Convenience Store,33.984955,-118.05665,,,15369
-118.26884,34.133427,378134,Boone's Market,4101 Chevy Chase Dr,,Los Angeles,CA,90039,1223,LOS ANGELES,Convenience Store,34.133427,-118.26884,,,15381
-118.21543,34.026417,378569,PALOMINO MEAT MARKET & BAKERY,2817 E 8th St,,Los Angeles,CA,90023,2107,LOS ANGELES,Grocery Store,34.026417,-118.21543,,,15428
-118.28339,34.057304,378611,Apulo Market,2612 W 8th St,,Los Angeles,CA,90057,3810,LOS ANGELES,Convenience Store,34.057304,-118.28339,,,15433
-118.01341,34.090488,374497,Happy Bakery,11629 Lower Azusa Rd Ste F,,El Monte,CA,91732,1389,LOS ANGELES,Other,34.090488,-118.01341,,,15435
-118.35335,33.965401,418627,Walgreens 6413,230 N la Brea Ave,,Inglewood,CA,90301,1215,LOS ANGELES,Other,33.965401,-118.35335,,,15501
-118.22394,34.212746,377171,ALEXIS DELI & GROCERY,4050 La Crescenta Ave,,Montrose,CA,91020,1365,LOS ANGELES,Grocery Store,34.212746,-118.22394,,,15558
-118.17353,34.088036,417206,EL AGUILA BAKERY INC.,5028 Huntington Dr S,,Los Angeles,CA,90032,1617,LOS ANGELES,Other,34.088036,-118.17353,,,15660
-117.8903,34.104527,328637,Superior Grocers 115,1375 N Citrus Ave,,Covina,CA,91722,1748,LOS ANGELES,Supermarket,34.104527,-117.8903,,,15664
-118.26526,33.979511,419032,EL MEXICANO MARKET,6625 Avalon Blvd,,Los Angeles,CA,90003,1917,LOS ANGELES,Super Store,33.979511,-118.26526,,,15845
-118.33747,34.184608,375253,99 Cents Only Store 111,2407 W Victory Blvd,,Burbank,CA,91506,1228,LOS ANGELES,Other,34.184608,-118.33747,,,15963
-118.55306,34.20842,403645,7-ELEVEN #18919 D,19259 Saticoy St,,Reseda,CA,91335,2550,LOS ANGELES,Convenience Store,34.20842,-118.55306,,,16049
-118.47553,34.194263,403784,Sams Liquor & Market,15717 Vanowen St,,Van Nuys,CA,91406,5030,LOS ANGELES,Convenience Store,34.194263,-118.47553,,,16062
-118.07862,33.905792,504696,SAN ANTONIO SPIRIT SHOP,13806 San Antonio Dr,,Norwalk,CA,90650,4033,LOS ANGELES,Convenience Store,33.905792,-118.07862,,,16125
-118.06446,34.051865,505847,MIKE'S LIQUOR,2003 Rosemead Blvd,,South El Monte,CA,91733,1526,LOS ANGELES,Convenience Store,34.051865,-118.06446,,,16264
-118.44254,34.279762,330383,PIONEER MARKET INC.,465 S Brand Blvd,,San Fernando,CA,91340,3626,LOS ANGELES,Grocery Store,34.279762,-118.44254,,,16271
-118.46455,34.404835,1587382,El Pollo Loco #5978,26930 Sierra Hwy,,Newhall,CA,91321,2253,LOS ANGELES,Restaurant Meals Program,34.404835,-118.46455,,,16313
-118.34389,33.88718,329899,7-Eleven 17243E,15805 Prairie Ave,,Lawndale,CA,90260,2711,LOS ANGELES,Convenience Store,33.88718,-118.34389,,,16337
-118.29158,34.022202,500668,SMART & FINAL 456,3607 S Vermont Ave,,Los Angeles,CA,90007,3945,LOS ANGELES,Super Store,34.022202,-118.29158,,,16373
-118.27885,34.070446,500720,OCCIDENTAL LIQUOR,2755 Beverly Blvd,,Los Angeles,CA,90057,1007,LOS ANGELES,Convenience Store,34.070446,-118.27885,,,16404
-118.40556,33.969025,404571,VONS  4021,6571 W 80th St,,Los Angeles,CA,90045,1126,LOS ANGELES,Supermarket,33.969025,-118.40556,,,16439
-118.37027,34.193607,500816,7-ELEVEN STORE 17372,6780 Vineland Ave,,North Hollywood,CA,91606,2031,LOS ANGELES,Convenience Store,34.193607,-118.37027,,,16477
-118.02119,34.064102,505033,La Blanquita Tortilleria,11859 Valley Blvd,,El Monte,CA,91732,3039,LOS ANGELES,Grocery Store,34.064102,-118.02119,,,16489
-118.4306,34.291107,503039,7-ELEVEN 17889 D,776 N Maclay Ave,,San Fernando,CA,91340,2143,LOS ANGELES,Convenience Store,34.291107,-118.4306,,,16532
-118.26513,33.95269,503093,Orlando Market,9200 Avalon Blvd,,Los Angeles,CA,90003,3835,LOS ANGELES,Convenience Store,33.95269,-118.26513,,,16597
-118.19423,33.942986,330710,LA JOLLA MARKET,4405 Tweedy Blvd,,South Gate,CA,90280,6303,LOS ANGELES,Convenience Store,33.942986,-118.19423,,,16599
-118.0377,33.95816,404953,SUPER MARKET,13401 Lambert Rd,,Whittier,CA,90605,2450,LOS ANGELES,Convenience Store,33.95816,-118.0377,,,16624
-118.20228,33.971874,502264,GOLDEN BELL LIQUOR,3615 Florence Ave,,Bell,CA,90201,3315,LOS ANGELES,Convenience Store,33.971874,-118.20228,,,16725
-118.14285,33.892601,503259,LIKKER LOCKER LIQUOR STORE,15529 Lakewood Blvd,,Paramount,CA,90723,4632,LOS ANGELES,Convenience Store,33.892601,-118.14285,,,16738
-118.32726,33.342453,503338,VONS 3280,240 Sumner Ave,,Avalon,CA,90704,    ,LOS ANGELES,Supermarket,33.342453,-118.32726,,,16785
-118.50213,34.272312,505379,Trader Joe's 44,11114 Balboa Blvd,,Granada Hills,CA,91344,4203,LOS ANGELES,Supermarket,34.272312,-118.50213,,,16790
-117.73603,34.107208,503451,Stater Bros. Markets 49,1055 W Foothill Blvd,,Claremont,CA,91711,3306,LOS ANGELES,Supermarket,34.107208,-117.73603,,,16864
-118.38098,33.854454,502437,VONS 2108,1212 Beryl St,,Redondo Beach,CA,90277,2427,LOS ANGELES,Supermarket,33.854454,-118.38098,,,16889
-118.29146,33.965801,500360,Glady's 98 Cent Up Store,8028 S Vermont Ave,,Los Angeles,CA,90044,3534,LOS ANGELES,Convenience Store,33.965801,-118.29146,,,16964
-117.96365,34.071678,476173,Walmart 3522,3250 BIG DALTON AVE,,BALDWIN PARK,CA,91706,    ,LOS ANGELES,Super Store,34.071678,-117.96365,,,17086
-118.09858,34.062603,476285,DEL MAR SUPERMARKET,7822 Garvey Ave,,Rosemead,CA,91770,3006,LOS ANGELES,Super Store,34.062603,-118.09858,,,17096
-117.9588,34.084053,518892,M & I Liquor,14511 Pacific Ave,,Baldwin Park,CA,91706,5331,LOS ANGELES,Convenience Store,34.084053,-117.9588,,,17135
-118.39617,33.95628,478957,RALPHS GROCERY COMPANY 209,8824 S Sepulveda Blvd,,Los Angeles,CA,90045,4833,LOS ANGELES,Super Store,33.95628,-118.39617,,,17142
-117.81035,34.017918,521077,Aljibani Halal Market,23385 Golden Springs Dr,,Diamond Bar,CA,91765,2028,LOS ANGELES,Grocery Store,34.017918,-117.81035,,,17174
-118.50224,34.26442,475526,7-ELEVEN 26874 C,10690 Balboa Blvd,,Granada Hills,CA,91344,6329,LOS ANGELES,Convenience Store,34.26442,-118.50224,,,17244
-118.29152,34.032322,518015,RALPHS GROCERY CO.  294,2600 S Vermont Ave,,Los Angeles,CA,90007,2222,LOS ANGELES,Super Store,34.032322,-118.29152,,,17260
-118.1253,33.896381,478001,People Market & Liquor,15100 Bellflower Blvd,,Bellflower,CA,90706,3711,LOS ANGELES,Convenience Store,33.896381,-118.1253,,,17279
-118.36169,33.887501,519058,El Gaucho Meat Market Inc,2715 Manhattan Beach Blvd,,Redondo Beach,CA,90278,1602,LOS ANGELES,Convenience Store,33.887501,-118.36169,,,17315
-118.36136,33.893623,519935,VONS 1623,4001 Inglewood Ave,,Redondo Beach,CA,90278,    ,LOS ANGELES,Supermarket,33.893623,-118.36136,,,17317
-118.14781,34.675884,516921,CITY MARKET #II,43636 10th St W,,Lancaster,CA,93534,4824,LOS ANGELES,Convenience Store,34.675884,-118.14781,,,17322
-118.26479,34.239494,519413,Classic Venice Pastry,3910 Foothill Blvd,,La Crescenta,CA,91214,1620,LOS ANGELES,Grocery Store,34.239494,-118.26479,,,17364
-118.53547,34.208374,519675,AL'S DRIVE-IN LIQUOR,18444 Saticoy St,,Reseda,CA,91335,2910,LOS ANGELES,Convenience Store,34.208374,-118.53547,,,17396
-118.19475,33.789898,476763,EL PAISANO SUPERMARKET,245 W Pacific Coast Hwy,,Long Beach,CA,90806,6114,LOS ANGELES,Grocery Store,33.789898,-118.19475,,,17421
-118.21304,33.934868,476802,SMART & FINAL 333,10833 Long Beach Blvd,,Lynwood,CA,90262,1912,LOS ANGELES,Super Store,33.934868,-118.21304,,,17486
-118.44819,34.27396,478208,LEN'S LIQUOR JR MARKET,11230 Laurel Canyon Blvd,,San Fernando,CA,91340,4312,LOS ANGELES,Convenience Store,34.27396,-118.44819,,,17502
-118.04519,34.518185,478289,STATER BROS. MARKETS 145,37218 47th St E,,Palmdale,CA,93550,    ,LOS ANGELES,Supermarket,34.518185,-118.04519,,,17560
-118.36668,34.050823,477055,VONS 2268,1430 S Fairfax Ave,,Los Angeles,CA,90019,3745,LOS ANGELES,Supermarket,34.050823,-118.36668,,,17621
-118.16827,34.077003,517301,Meadow Maid Market,5393 Alhambra Ave,,Los Angeles,CA,90032,3411,LOS ANGELES,Convenience Store,34.077003,-118.16827,,,17630
-118.43936,34.28204,516044,CORK N JUG LIQUOR & JR MARKET,901 Truman St,,San Fernando,CA,91340,3316,LOS ANGELES,Convenience Store,34.28204,-118.43936,,,17643
-118.22598,33.974262,517344,99 CENTS ONLY STORES 44,2566 E Florence Ave,,Huntington Park,CA,90255,4706,LOS ANGELES,Other,33.974262,-118.22598,,,17658
-117.83665,34.106758,516209,Stater Bros. Markets 56,1425 W Arrow Hwy,,San Dimas,CA,91773,2331,LOS ANGELES,Supermarket,34.106758,-117.83665,,,17832
-118.30478,34.047237,479740,SMART & FINAL 364,2949 W Pico Blvd,,Los Angeles,CA,90006,3809,LOS ANGELES,Super Store,34.047237,-118.30478,,,17837
-118.02312,34.073406,479807,VIC'S LIQUOR,3714 Peck Rd,,El Monte,CA,91731,3531,LOS ANGELES,Convenience Store,34.073406,-118.02312,,,17883
-118.53608,34.202271,516346,New Bangluck Corporation,7235 Reseda Blvd,,Reseda,CA,91335,3046,LOS ANGELES,Supermarket,34.202271,-118.53608,,,17906
-118.48673,34.228367,478814,FOOD 4 LESS  354,16208 Parthenia St,,North Hills,CA,91343,4704,LOS ANGELES,Super Store,34.228367,-118.48673,,,17922
-118.25262,33.902721,478867,FOOD 4 LESS  379,1900 W Rosecrans Ave,,Compton,CA,90220,1015,LOS ANGELES,Super Store,33.902721,-118.25262,,,17957
-118.18769,33.987331,480005,FOOD 4 LESS 341,4400 Slauson Ave,,Maywood,CA,90270,2932,LOS ANGELES,Super Store,33.987331,-118.18769,,,17965
-118.26528,33.999619,541719,Lee's Market,4801 Avalon Blvd,,Los Angeles,CA,90011,4001,LOS ANGELES,Grocery Store,33.999619,-118.26528,,,18009
-118.38641,34.083397,539849,Pavilions 2739,8969 Santa Monica Blvd,,West Hollywood,CA,90069,4982,LOS ANGELES,Supermarket,34.083397,-118.38641,,,18274
-118.26615,34.077969,543025,7-ELEVEN 33028A,2200 W Sunset Blvd,,Los Angeles,CA,90026,3002,LOS ANGELES,Convenience Store,34.077969,-118.26615,,,18318
-118.18373,33.930759,543185,Walgreens 06249,4351 E Imperial Hwy,,Lynwood,CA,90262,2318,LOS ANGELES,Other,33.930759,-118.18373,,,18335
-118.309,33.940231,481439,Hill Top Market,10526 S Western Ave,,Los Angeles,CA,90047,4457,LOS ANGELES,Grocery Store,33.940231,-118.309,,,18391
-118.15952,33.914482,344402,Lucky - 7 Liquor & Deli,13307 Paramount Blvd,,South Gate,CA,90280,8252,LOS ANGELES,Convenience Store,33.914482,-118.15952,,,18409
-118.29092,34.172199,480435,Movses Pastry Inc ,1755 W Glenoaks Blvd,Unit A,Glendale,CA,91201,4359,LOS ANGELES,Specialty Store,34.172199,-118.29092,,,18585
-118.30896,33.917236,346731,Western R & L Liquor,12714 S Western Ave,,Los Angeles,CA,90047,5253,LOS ANGELES,Convenience Store,33.917236,-118.30896,,,18643
-117.96047,34.103889,346809,FRANK'S MARKET,5026 Maine Ave,,Baldwin Park,CA,91706,1639,LOS ANGELES,Convenience Store,34.103889,-117.96047,,,18692
-118.27528,33.824238,344893,SEAFOOD RANCH MARKET,117 E 223rd St,,Carson,CA,90745,3801,LOS ANGELES,Supermarket,33.824238,-118.27528,,,18786
-118.24205,34.027538,482072,SMART & FINAL 310,1216 Compton Ave,,Los Angeles,CA,90021,2331,LOS ANGELES,Super Store,34.027538,-118.24205,,,18789
-118.35797,34.049026,387736,Okay Liquor,5500 W Pico Blvd,,Los Angeles,CA,90019,3916,LOS ANGELES,Convenience Store,34.049026,-118.35797,,,18817
-118.25375,34.026115,345942,IMPERIAL POULTRY,821 E Washington Blvd,,Los Angeles,CA,90021,3018,LOS ANGELES,Specialty Store,34.026115,-118.25375,,,18865
-118.10033,33.922775,481094,SMART & FINAL 325,10935 Firestone Blvd,,Norwalk,CA,90650,2242,LOS ANGELES,Super Store,33.922775,-118.10033,,,18896
-118.43308,34.025455,539525,RALPHS 709,11361 National Blvd,,Los Angeles,CA,90064,3726,LOS ANGELES,Super Store,34.025455,-118.43308,,,18901
-118.21017,34.073692,387907,Big Saver Food 1,3000 N Broadway,,Los Angeles,CA,90031,2702,LOS ANGELES,Super Store,34.073692,-118.21017,,,18927
-118.43068,34.179356,388001,SWEET 1 BAKERY,13668 Oxnard St,,Van Nuys,CA,91401,4046,LOS ANGELES,Grocery Store,34.179356,-118.43068,,,18962
-118.50116,34.159336,539718,SMART & FINAL 477,16847 Ventura Blvd,,Encino,CA,91316,    ,LOS ANGELES,Super Store,34.159336,-118.50116,,,18998
-118.30914,34.09005,390123,CATALINA'S SUPER MKT INC,1070 N Western Ave,,Los Angeles,CA,90029,2310,LOS ANGELES,Supermarket,34.09005,-118.30914,,,19001
-118.02019,34.06274,543795,FOOD 4 LESS  338,11950 Garvey Ave,,El Monte,CA,91732,3514,LOS ANGELES,Super Store,34.06274,-118.02019,,,19084
-118.13425,34.065285,431867,RALPHS  715,330 N Atlantic Blvd,,Monterey Park,CA,91754,1520,LOS ANGELES,Super Store,34.065285,-118.13425,,,19194
-118.39732,34.193909,432047,Marketa Perez Inc.,12116 Vanowen St,,North Hollywood,CA,91605,5651,LOS ANGELES,Grocery Store,34.193909,-118.39732,,,19214
-118.2502,34.230553,389755,VONS  2598,3233 Foothill Blvd,,La Crescenta,CA,91214,2636,LOS ANGELES,Supermarket,34.230553,-118.2502,,,19289
-118.22831,34.119625,389924,Seafood Ranch Market,3756 W Avenue 40 # N,,Los Angeles,CA,90065,3665,LOS ANGELES,Supermarket,34.119625,-118.22831,,,19311
-118.23898,33.925591,389975,FOOD 4 LESS 378,11840 Wilmington Ave,,Los Angeles,CA,90059,3016,LOS ANGELES,Super Store,33.925591,-118.23898,,,19316
-118.26316,34.05899,390116,CARNICERIA LOS TAPATIOS,1451 W 3rd St,,Los Angeles,CA,90017,1401,LOS ANGELES,Grocery Store,34.05899,-118.26316,,,19327
-118.38555,33.818077,429122,Trader Joe's 38,1761 S Elena Ave,,Redondo Beach,CA,90277,5704,LOS ANGELES,Supermarket,33.818077,-118.38555,,,19521
-118.32847,33.945442,544294,FOOD 4 LESS 364,3200 W Century Blvd,,Inglewood,CA,90303,1410,LOS ANGELES,Super Store,33.945442,-118.32847,,,19522
-118.40143,34.021984,390445,SMART & FINAL 330,10113 Venice Blvd,,Los Angeles,CA,90034,5809,LOS ANGELES,Super Store,34.021984,-118.40143,,,19525
-117.95908,34.084309,428144,EL PILON MEAT MARKET 2,14503 Pacific Ave,,Baldwin Park,CA,91706,5331,LOS ANGELES,Grocery Store,34.084309,-117.95908,,,19538
-118.14263,33.861259,428232,Walgreens 06903,5829 Lakewood Blvd,,Lakewood,CA,90712,1001,LOS ANGELES,Other,33.861259,-118.14263,,,19606
-118.10914,33.755955,428384,Trader Joe's 43,6451 E Pacific Coast Hwy,,Long Beach,CA,90803,4253,LOS ANGELES,Supermarket,33.755955,-118.10914,,,19624
-118.53549,34.179192,388473,Bazaar Market,6022 Reseda Blvd,,Tarzana,CA,91356,1507,LOS ANGELES,Grocery Store,34.179192,-118.53549,,,19730
-118.27397,33.975231,390800,LEON'S MINI MARKET,7111 S Main St,,Los Angeles,CA,90003,2131,LOS ANGELES,Convenience Store,33.975231,-118.27397,,,19739
-118.29165,34.07177,432781,Seafood City Supermarket,138 S Vermont Ave,,Los Angeles,CA,90004,5905,LOS ANGELES,Supermarket,34.07177,-118.29165,,,19820
-118.49019,34.420963,544750,Rainbow Market,26970 Rainbow Glen Dr,,Canyon Country,CA,91351,4875,LOS ANGELES,Convenience Store,34.420963,-118.49019,,,19829
-118.44547,34.062332,544881,CVS Pharmacy 5828,1001 Westwood Blvd,,Los Angeles,CA,90024,2902,LOS ANGELES,Other,34.062332,-118.44547,,,19844
-118.17514,34.069496,429659,FIESTA MARKET,5008 Valley Blvd,,Los Angeles,CA,90032,3925,LOS ANGELES,Convenience Store,34.069496,-118.17514,,,19846
-118.59721,34.167839,388734,Whole Foods Market 10099,21347 Ventura Blvd,,Woodland Hills,CA,91364,2007,LOS ANGELES,Super Store,34.167839,-118.59721,,,19874
-118.09077,34.07827,545041,SF Supermarket,1635 S San Gabriel Blvd,,San Gabriel,CA,91776,3998,LOS ANGELES,Super Store,34.07827,-118.09077,,,19886
-118.15405,33.782528,432897,Food 4 Less 762,3210 E Anaheim St,,Long Beach,CA,90804,3818,LOS ANGELES,Super Store,33.782528,-118.15405,,,19899
-118.21527,34.073631,545106,99 CENTS ONLY STORES  51,2606 N Broadway,,Los Angeles,CA,90031,2608,LOS ANGELES,Other,34.073631,-118.21527,,,19913
-118.27354,34.072262,545280,EL RECREO MARKET,2501 W Temple St,,Los Angeles,CA,90026,4819,LOS ANGELES,Grocery Store,34.072262,-118.27354,,,19969
-118.11568,33.810612,429939,Vons 2203,5949 E Spring St,,Long Beach,CA,90808,3752,LOS ANGELES,Supermarket,33.810612,-118.11568,,,19977
-118.46574,34.404957,433188,STATER BROS. MARKETS 141,26900 Sierra Hwy,,Santa Clarita,CA,91321,2253,LOS ANGELES,Supermarket,34.404957,-118.46574,,,19981
-118.25143,34.133476,433224,El Mambi Meat Market,328 E Chevy Chase Dr,,Glendale,CA,91205,3130,LOS ANGELES,Grocery Store,34.133476,-118.25143,,,19987
-118.18917,33.903534,628159,SOTO'S PRODUCE,4900 E Rosecrans Ave,,Compton,CA,90221,1852,LOS ANGELES,Grocery Store,33.903534,-118.18917,,,20011
-118.43845,33.985844,628652,Pavilions 2105,4365 Glencoe Ave,,Marina del Rey,CA,90292,6466,LOS ANGELES,Supermarket,33.985844,-118.43845,,,20061
-118.49863,34.01622,628687,SANTA MONICA CERTIFIED FRMRS MKT,ARIZONA AVE AT 2ND ST,,SANTA MONICA,CA,90401,    ,LOS ANGELES,Farmers and Markets,34.01622,-118.49863,,,20064
-118.41177,34.024979,402668,7-ELEVEN 13731 B,3450 Overland Ave,,Los Angeles,CA,90034,5406,LOS ANGELES,Convenience Store,34.024979,-118.41177,,,20144
-118.2961,34.095032,545387,Cecy's Market,1256 N Edgemont St,,Los Angeles,CA,90029,1595,LOS ANGELES,Grocery Store,34.095032,-118.2961,,,20146
-118.15132,33.871277,545971,C &C Fine Foods Market,6401 Downey Ave,,Long Beach,CA,90805,2820,LOS ANGELES,Convenience Store,33.871277,-118.15132,,,20226
-118.26273,33.960159,546309,WEST LIQUOR,701 E Manchester Ave,,Los Angeles,CA,90001,3632,LOS ANGELES,Convenience Store,33.960159,-118.26273,,,20262
-117.9251,34.035641,402735,Stater Bros. Markets 54,1025 E Amar Rd,,West Covina,CA,91792,1300,LOS ANGELES,Supermarket,34.035641,-117.9251,,,20292
-118.13391,33.874432,630387,THE CORNER LIQUOR STORE,17403 Clark Ave,,Bellflower,CA,90706,6516,LOS ANGELES,Convenience Store,33.874432,-118.13391,,,20356
-118.53473,34.168266,630510,VONS 2066,18439 Ventura Blvd,,Tarzana,CA,91356,4201,LOS ANGELES,Supermarket,34.168266,-118.53473,,,20366
-117.96087,34.098919,398659,Vance's Liquor & Jr. Market,4741 Maine Ave,,Baldwin Park,CA,91706,2558,LOS ANGELES,Convenience Store,34.098919,-117.96087,,,20418
-118.39668,34.208546,402777,CONTINENTAL BAKERY,12105 Saticoy St,,North Hollywood,CA,91605,3025,LOS ANGELES,Other,34.208546,-118.39668,,,20420
-118.3965,34.222683,402894,RALPHS GROCERY COMPANY 17,8325 Laurel Canyon Blvd,,Sun Valley,CA,91352,3809,LOS ANGELES,Super Store,34.222683,-118.3965,,,20458
-118.15371,33.940044,399928,7-ELEVEN 16560 C,7400 Stewart and Gray Rd,,Downey,CA,90241,4629,LOS ANGELES,Convenience Store,33.940044,-118.15371,,,20468
-118.43255,34.220451,458845,Seafood City Supermarket,8231 Woodman Ave,,Panorama City,CA,91402,5441,LOS ANGELES,Supermarket,34.220451,-118.43255,,,20519
-118.45026,34.242992,459084,SHORT STOP FOOD & LIQUOR,9501 Van Nuys Blvd,,Panorama City,CA,91402,1350,LOS ANGELES,Convenience Store,34.242992,-118.45026,,,20532
-118.465,33.999996,401766,SMART & FINAL 332,604 Lincoln Blvd,,Venice,CA,90291,2830,LOS ANGELES,Super Store,33.999996,-118.465,,,20569
-118.42545,34.426716,400717,VONS 3138,16550 W Soledad Canyon Rd,,Santa Clarita,CA,91387,3215,LOS ANGELES,Supermarket,34.426716,-118.42545,,,20576
-118.16016,33.88665,400832,NORTHGATE #17,16259 Paramount Blvd,,Paramount,CA,90723,5425,LOS ANGELES,Super Store,33.88665,-118.16016,,The Regents of the Univ. of Calif. San Diego,20652
-118.2335,34.063358,399172,LAX C INC,1100 N Main St,,Los Angeles,CA,90012,1832,LOS ANGELES,Super Store,34.063358,-118.2335,,,20668
-118.08237,33.870049,399207,99 Ranch Market 17,17713 Pioneer Blvd,,Artesia,CA,90701,4010,LOS ANGELES,Super Store,33.870049,-118.08237,,,20690
-118.38571,33.815975,399476,VONS 2273,245 Palos Verdes Blvd,,Redondo Beach,CA,90277,5820,LOS ANGELES,Supermarket,33.815975,-118.38571,,,20828
-118.08354,34.558117,629664,STATER BROS. MARKETS 130,2535 E Avenue S,,Palmdale,CA,93550,6402,LOS ANGELES,Supermarket,34.558117,-118.08354,,,20873
-118.23383,34.142723,399591,RALPH GROCERY COMPANY 60,1416 E Colorado St,,Glendale,CA,91205,1512,LOS ANGELES,Super Store,34.142723,-118.23383,,,20880
-118.26504,34.006733,400412,Coronado Meat Market,4228 Avalon Blvd,,Los Angeles,CA,90011,5623,LOS ANGELES,Convenience Store,34.006733,-118.26504,,,20900
-118.27567,34.046848,401366,San Diego Market Partnership,1131 S Union Ave,,Los Angeles,CA,90015,2029,LOS ANGELES,Grocery Store,34.046848,-118.27567,,,20955
-118.29152,33.924629,401375,RALPHS 266,11922 S Vermont Ave,,Los Angeles,CA,90044,4054,LOS ANGELES,Super Store,33.924629,-118.29152,,,20961
-118.41068,34.274464,401444,FOOD 4 LESS 377,12765 Van Nuys Blvd,,Pacoima,CA,91331,1627,LOS ANGELES,Super Store,34.274464,-118.41068,,,20983
-118.26877,34.014805,629927,LOS 4 HERMANOS #2 MARKET,416 E 36th St,,Los Angeles,CA,90011,2329,LOS ANGELES,Convenience Store,34.014805,-118.26877,,,20990
-117.8711,33.986168,506674,Stater Bros. Markets 67,19756 Colima Rd,,Rowland Heights,CA,91748,3298,LOS ANGELES,Supermarket,33.986168,-117.8711,,,21070
-118.2453,33.967464,563610,POLLERIA GUADALAJARA,1601 Nadeau St,,Los Angeles,CA,90001,3499,LOS ANGELES,Grocery Store,33.967464,-118.2453,,,21173
-118.33514,34.028049,409527,SMART & FINAL 470,2929 Crenshaw Blvd,,Los Angeles,CA,90016,4266,LOS ANGELES,Super Store,34.028049,-118.33514,,,21291
-117.96946,34.557899,408544,SUPER STORE No. 6,37202 90th St E,,Littlerock,CA,93543,1215,LOS ANGELES,Convenience Store,34.557899,-117.96946,,,21396
-118.13232,34.148857,407518,RALPHS GROCERY COMPANY 96,160 N Lake Ave,,Pasadena,CA,91101,1836,LOS ANGELES,Super Store,34.148857,-118.13232,,,21435
-118.25996,34.064598,564920,CRYSTAL MARKET,216 Glendale Blvd,,Los Angeles,CA,90026,5516,LOS ANGELES,Convenience Store,34.064598,-118.25996,,,21454
-118.36752,33.812084,563851,RALPHS GROCERY COMPANY 88,5035 Pacific Coast Hwy,,Torrance,CA,90505,5441,LOS ANGELES,Super Store,33.812084,-118.36752,,,21472
-118.46775,34.234173,563861,Valley Seafood & Poultry Market,9023 Sepulveda Blvd,,North Hills,CA,91343,4307,LOS ANGELES,Specialty Store,34.234173,-118.46775,,,21488
-118.05621,33.997902,565092,BARLEY BIN,5427 Norwalk Blvd,Ste D,Whittier,CA,90601,2567,LOS ANGELES,Convenience Store,33.997902,-118.05621,,,21583
-118.64261,34.189671,409005,Pavilions 2225,6534 Platt Ave,,West Hills,CA,91307,3218,LOS ANGELES,Supermarket,34.189671,-118.64261,,,21613
-118.14331,34.017399,409070,La Poblana Carniceria,5928 Whittier Blvd,,Los Angeles,CA,90022,4304,LOS ANGELES,Grocery Store,34.017399,-118.14331,,,21620
-118.04004,33.977299,409295,Espinoza Meat Market,12733 Wardman St,,Whittier,CA,90602,1260,LOS ANGELES,Grocery Store,33.977299,-118.04004,,,21645
-118.08828,34.00312,405800,FOOD 4 LESS  336,8620 Whittier Blvd,,Pico Rivera,CA,90660,2655,LOS ANGELES,Super Store,34.00312,-118.08828,,,21742
-118.29206,34.173038,564152,PARADISE PASTRY BAKERY,1815 W Glenoaks Blvd,,Glendale,CA,91201,1502,LOS ANGELES,Supermarket,34.173038,-118.29206,,,21774
-118.61945,34.167294,564156,SMART & FINAL 324,22631 Ventura Blvd,,Woodland Hills,CA,91364,1416,LOS ANGELES,Super Store,34.167294,-118.61945,,,21781
-117.94595,34.048756,565292,99 CENTS ONLY STORES  56,1617 N Hacienda Blvd,,La Puente,CA,91744,1137,LOS ANGELES,Other,34.048756,-117.94595,,,21799
-118.35762,33.974892,563301,RALPHS GROCERY CO  277,950 N la Brea Ave,,Inglewood,CA,90302,2208,LOS ANGELES,Super Store,33.974892,-118.35762,,,21838
-118.19849,34.049881,564218,Jean's Market,919 Forest Ave,,Los Angeles,CA,90033,2625,LOS ANGELES,Convenience Store,34.049881,-118.19849,,,21843
-118.63275,34.208298,405948,Fields Market,23221 Saticoy St,,Canoga Park,CA,91304,5310,LOS ANGELES,Grocery Store,34.208298,-118.63275,,,21845
-118.24963,34.111893,407194,M & W LIQUOR NO. 1,2801 Fletcher Dr,,Los Angeles,CA,90039,2414,LOS ANGELES,Convenience Store,34.111893,-118.24963,,,21870
-118.31498,34.10173,405994,7-Eleven Store 18534C,5763 Hollywood Blvd,,Hollywood,CA,90028,6719,LOS ANGELES,Convenience Store,34.10173,-118.31498,,,21874
-118.02527,34.151089,564281,RALPHS GROCERY COMPANY 41,211 E Foothill Blvd,,Arcadia,CA,91006,2509,LOS ANGELES,Super Store,34.151089,-118.02527,,,21879
-118.27853,33.831505,407963,Tambuli Market,126 W Carson St,,Carson,CA,90745,2601,LOS ANGELES,Supermarket,33.831505,-118.27853,,,21880
-118.37209,34.021751,408029,7-ELEVEN 25330 C,5791 Rodeo Rd,,Los Angeles,CA,90016,5013,LOS ANGELES,Convenience Store,34.021751,-118.37209,,,21923
-118.19364,33.795792,411559,NORTHGATE #12,2120 Pacific Ave,,Long Beach,CA,90806,4514,LOS ANGELES,Super Store,33.795792,-118.19364,,The Regents of the Univ. of Calif. San Diego,21944
-118.40622,34.186749,303348,Mousaler Inc.,12523 Victory Blvd,,North Hollywood,CA,91606,3135,LOS ANGELES,Supermarket,34.186749,-118.40622,,,22039
-118.50149,34.257504,306316,RALPHS 704,16940 Devonshire St,,Granada Hills,CA,91344,7406,LOS ANGELES,Super Store,34.257504,-118.50149,,,22063
-118.46675,34.044716,567530,Ralphs Fresh Fare 44,12057 Wilshire Blvd,,Los Angeles,CA,90025,1201,LOS ANGELES,Super Store,34.044716,-118.46675,,,22160
-118.28277,33.974159,305473,98  Discount Store,7223 S Figueroa St,,Los Angeles,CA,90003,1720,LOS ANGELES,Convenience Store,33.974159,-118.28277,,,22223
-118.05973,34.123379,305993,99 Ranch Market 7,1300 S Golden West Ave,,Arcadia,CA,91007,7878,LOS ANGELES,Super Store,34.123379,-118.05973,,,22260
-118.37569,33.775257,392693,Pavilions 2233,7 Peninsula Ctr,,Rolling Hills Estates,CA,90274,3506,LOS ANGELES,Supermarket,33.775257,-118.37569,,,22288
-118.30746,33.798122,566086,Walgreens 05591,24930 Western Ave,,Harbor City,CA,90710,2029,LOS ANGELES,Other,33.798122,-118.30746,,,22433
-118.18468,34.023987,566137,WHITTIER MARKET,4045 Whittier Blvd,,Los Angeles,CA,90023,2536,LOS ANGELES,Supermarket,34.023987,-118.18468,,,22439
-118.23297,33.937431,391590,TORITO MARKET,10804 Juniper St,,Los Angeles,CA,90059,1326,LOS ANGELES,Grocery Store,33.937431,-118.23297,,,22497
-118.41512,34.206833,363186,SUNRISE LIQUOR,12931 Saticoy St,,North Hollywood,CA,91605,3508,LOS ANGELES,Convenience Store,34.206833,-118.41512,,,22514
-118.22268,33.973896,363939,WALNUT PRODUCE MARKET,2690 E Florence Ave,,Huntington Park,CA,90255,4708,LOS ANGELES,Grocery Store,33.973896,-118.22268,,,22522
-118.10603,34.017242,363208,VONS 3258,804 W Beverly Blvd,,Montebello,CA,90640,4213,LOS ANGELES,Supermarket,34.017242,-118.10603,,,22534
-118.36771,34.179459,303912,Vallarta Supermarket 9,10859 Oxnard St,,North Hollywood,CA,91606,5020,LOS ANGELES,Super Store,34.179459,-118.36771,,,22593
-118.23952,33.970852,304045,Walnut Market,7650 Walnut Dr,,Los Angeles,CA,90001,3155,LOS ANGELES,Convenience Store,33.970852,-118.23952,,,22611
-117.93178,33.992836,391745,99 Ranch Market 18,1625 S Azusa Ave,,Hacienda Heights,CA,91745,3832,LOS ANGELES,Super Store,33.992836,-117.93178,,,22626
-118.14725,33.760101,392406,VONS 2280,3900 E Ocean Blvd,,Long Beach,CA,90803,2817,LOS ANGELES,Supermarket,33.760101,-118.14725,,,22719
-118.28802,33.724121,392408,Lucky Discount 98+,2215 S Pacific Ave,Ste F,San Pedro,CA,90731,5985,LOS ANGELES,Convenience Store,33.724121,-118.28802,,,22720
-118.19816,33.784504,306882,La Guadalupe Market,1425 Magnolia Ave,,Long Beach,CA,90813,1540,LOS ANGELES,Convenience Store,33.784504,-118.19816,,,22769
-118.33504,33.793522,393308,SMART & FINAL 458,2775 Pacific Coast Hwy,,Torrance,CA,90505,7001,LOS ANGELES,Super Store,33.793522,-118.33504,,,22851
-118.29469,34.057789,363709,EL CHANGARRO MEAT MARKET,3113 W 8th St,,Los Angeles,CA,90005,1902,LOS ANGELES,Grocery Store,34.057789,-118.29469,,,22883
-118.57507,34.208378,364330,AMBER LIQUOR,20263 Saticoy St,Ste A,Canoga Park,CA,91306,2591,LOS ANGELES,Convenience Store,34.208378,-118.57507,,,22910
-118.30985,33.989086,597389,FOOD 4 LESS  777,1820 W Slauson Ave,,Los Angeles,CA,90047,1126,LOS ANGELES,Super Store,33.989086,-118.30985,,,23005
-118.36138,33.94043,395517,Pescaderia El Golfo,10521 S Inglewood Ave,,Inglewood,CA,90304,1716,LOS ANGELES,Other,33.94043,-118.36138,,,23087
-118.29972,34.256168,395529,ROE-ZEE MARKET,7670 Foothill Blvd,,Tujunga,CA,91042,2139,LOS ANGELES,Grocery Store,34.256168,-118.29972,,,23089
-118.1311,34.06218,395555,Tak Shun Co. 1,616 W Garvey Ave,,Monterey Park,CA,91754,2706,LOS ANGELES,Other,34.06218,-118.1311,,,23092
-118.07466,33.831589,395573,99 Cents Only Store 46,12125 Carson St,,Hawaiian Gardens,CA,90716,1154,LOS ANGELES,Other,33.831589,-118.07466,,,23094
-118.46738,34.243359,395869,7-ELEVEN 21851 D,9526 Sepulveda Blvd,,North Hills,CA,91343,3306,LOS ANGELES,Convenience Store,34.243359,-118.46738,,,23116
-118.35275,33.927067,443498,99 Cents Only Store 19,11811 Hawthorne Blvd,,Hawthorne,CA,90250,3013,LOS ANGELES,Other,33.927067,-118.35275,,,23190
-118.35502,34.021469,443996,RALPHS 283,5080 Rodeo Rd,,Los Angeles,CA,90016,4706,LOS ANGELES,Super Store,34.021469,-118.35502,,,23232
-118.35105,33.80415,522063,Hawthorne Market,24202 Hawthorne Blvd,,Torrance,CA,90505,6505,LOS ANGELES,Grocery Store,33.80415,-118.35105,,,23283
-118.36199,34.164829,522254,7 Eleven #26270 C,10610 Magnolia Blvd,,North Hollywood,CA,91601,4052,LOS ANGELES,Convenience Store,34.164829,-118.36199,,,23302
-117.90961,34.102551,522336,Walmart 2292,1275 N AZUSA AVE,,COVINA,CA,91722,    ,LOS ANGELES,Super Store,34.102551,-117.90961,,,23308
-118.20259,34.660229,522448,VONS 2029,4033 W Avenue L,,Lancaster,CA,93536,4213,LOS ANGELES,Supermarket,34.660229,-118.20259,,,23318
-118.42271,34.01989,393799,Trader Joe's 119,3456 S Sepulveda Blvd,,Los Angeles,CA,90034,6010,LOS ANGELES,Supermarket,34.01989,-118.42271,,,23424
-118.19182,33.896152,394024,LMG Liquor Inc.,4610 E Compton Blvd,,Compton,CA,90221,3155,LOS ANGELES,Convenience Store,33.896152,-118.19182,,,23442
-118.13957,34.703949,394083,BOB'S TOO MARKET,551 W Avenue I,Ste A,Lancaster,CA,93534,1646,LOS ANGELES,Convenience Store,34.703949,-118.13957,,,23446
-118.2179,33.917076,394209,Ruben's Mexican Food & Deli,2701 N Santa Fe Ave,,Compton,CA,90222,2324,LOS ANGELES,Convenience Store,33.917076,-118.2179,,,23451
-118.07553,34.150242,394521,RALPHS  730,3601 E Foothill Blvd,,Pasadena,CA,91107,3121,LOS ANGELES,Super Store,34.150242,-118.07553,,,23480
-117.76372,34.096424,597668,INLAND DAIRY,2055 N White Ave,,La Verne,CA,91750,5665,LOS ANGELES,Convenience Store,34.096424,-117.76372,,,23510
-118.185,33.821705,596683,Walgreens 07244,3570 Atlantic Ave,,Long Beach,CA,90807,4516,LOS ANGELES,Other,33.821705,-118.185,,,23545
-118.21262,34.025166,523165,A & E RAMIREZ MARKET,2971 E 8th St,,Los Angeles,CA,90023,2137,LOS ANGELES,Convenience Store,34.025166,-118.21262,,,23644
-118.29233,33.735432,598645,99 CENTS ONLY STORES  45,938 S Gaffey St,,San Pedro,CA,90731,3607,LOS ANGELES,Other,33.735432,-118.29233,,,23648
-118.21538,33.791866,444563,Anchor Liquors SC Inc,1908 Santa Fe Ave,,Long Beach,CA,90810,4049,LOS ANGELES,Convenience Store,33.791866,-118.21538,,,23705
-118.48508,34.257381,523285,SMART & FINAL 460,16210 Devonshire St,,Granada Hills,CA,91344,6909,LOS ANGELES,Super Store,34.257381,-118.48508,,,23706
-118.20487,33.961815,597882,SUPER A FOODS INC 10,8116 California Ave,,South Gate,CA,90280,2400,LOS ANGELES,Super Store,33.961815,-118.20487,,,23707
-118.29198,33.944038,444573,MORE 4 LESS,10207 S Vermont Ave,,Los Angeles,CA,90044,3115,LOS ANGELES,Convenience Store,33.944038,-118.29198,,,23715
-117.98006,34.069229,598146,FOOD 4 LESS 396,3000 Baldwin Park Blvd,,Baldwin Park,CA,91706,4701,LOS ANGELES,Super Store,34.069229,-117.98006,,,23843
-118.25118,34.043854,364881,Main Market,105 E 7th St,,Los Angeles,CA,90014,2008,LOS ANGELES,Convenience Store,34.043854,-118.25118,,,23861
-118.08232,34.010963,364885,PASTOR MEAT  MARKET,8922 Beverly Blvd,Ste B,Pico Rivera,CA,90660,1900,LOS ANGELES,Specialty Store,34.010963,-118.08232,,,23864
-118.53596,34.170132,595979,GELSON'S MARKETS 5,5500 Reseda Blvd,,Tarzana,CA,91356,2608,LOS ANGELES,Supermarket,34.170132,-118.53596,,,23888
-118.13686,34.601627,365187,99 Cents Only Store 109,442 W Rancho Vista Blvd,,Palmdale,CA,93551,3712,LOS ANGELES,Other,34.601627,-118.13686,,,23999
-118.07468,33.997467,365252,99 CENTS ONLY STORES  31,9535 Whittier Blvd,,Pico Rivera,CA,90660,2834,LOS ANGELES,Other,33.997467,-118.07468,,,24016
-118.41334,34.145023,367551,Ralphs Fresh Fare 701,12842 Ventura Blvd,,Studio City,CA,91604,2369,LOS ANGELES,Super Store,34.145023,-118.41334,,,24028
-118.46665,34.152199,367664,Whole Foods Market 10038,4520 Sepulveda Blvd,,Sherman Oaks,CA,91403,4046,LOS ANGELES,Super Store,34.152199,-118.46665,,,24036
-117.73905,34.107269,368091,J & W Liquor,553 E Foothill Blvd,,Pomona,CA,91767,1238,LOS ANGELES,Convenience Store,34.107269,-117.73905,,,24075
-118.27636,34.246536,368234,7-ELEVEN 19239 B,6610 Foothill Blvd,,Tujunga,CA,91042,2707,LOS ANGELES,Convenience Store,34.246536,-118.27636,,,24089
-118.3154,34.25972,447770,7 ELEVEN FOOD STORE 20814,8363 Foothill Blvd,,Sunland,CA,91040,2809,LOS ANGELES,Convenience Store,34.25972,-118.3154,,,24122
-118.41003,34.201267,449293,El Super 5,12727 Sherman Way,,North Hollywood,CA,91605,5032,LOS ANGELES,Supermarket,34.201267,-118.41003,,,24189
-118.39397,33.76046,449376,Ralphs Fresh Fare 720,30019 Hawthorne Blvd,,Rancho Palos Verdes,CA,90275,5434,LOS ANGELES,Super Store,33.76046,-118.39397,,,24202
-118.25217,33.98494,449860,LA JALAPENSE MEAT MARKET,6009 Hooper Ave,,Los Angeles,CA,90001,1222,LOS ANGELES,Grocery Store,33.98494,-118.25217,,,24242
-117.74218,34.062336,365459,Pomona Wine Cellar,468 E Holt Ave,,Pomona,CA,91767,5540,LOS ANGELES,Convenience Store,34.062336,-117.74218,,,24289
-118.40588,34.193977,368656,ARROW LIQUOR AND JR MARKET,12521 Vanowen St,,North Hollywood,CA,91605,5321,LOS ANGELES,Convenience Store,34.193977,-118.40588,,,24360
-118.1348,34.686764,444772,BOB'S LIQUOR & DELI,44261 Sierra Hwy,,Lancaster,CA,93534,4307,LOS ANGELES,Convenience Store,34.686764,-118.1348,,,24368
-118.46613,34.199863,444846,Jons Marketplace 19,7134 Sepulveda Blvd,,Van Nuys,CA,91405,2929,LOS ANGELES,Supermarket,34.199863,-118.46613,,,24373
-118.12242,34.579811,445202,Vallarta Supermarket 4,440 E Palmdale Blvd,,Palmdale,CA,93550,4519,LOS ANGELES,Super Store,34.579811,-118.12242,,,24416
-118.27401,33.983124,445908,GRACIAS DISCOUNT STORE,6221 S Main St,,Los Angeles,CA,90003,1535,LOS ANGELES,Convenience Store,33.983124,-118.27401,,,24610
-118.44878,34.19223,447147,JONS MARKET 2,6655 Van Nuys Blvd,,Van Nuys,CA,91405,4618,LOS ANGELES,Supermarket,34.19223,-118.44878,,,24623
-118.33094,33.980988,448535,CRENSHAW MINI MARKET,6431 Crenshaw Blvd,,Los Angeles,CA,90043,3951,LOS ANGELES,Convenience Store,33.980988,-118.33094,,,24693
-118.45618,34.026398,447253,Trader Joe's 6,3212 Pico Blvd,,Santa Monica,CA,90405,2114,LOS ANGELES,Supermarket,34.026398,-118.45618,,,24739
-118.02422,34.108204,366249,7-ELEVEN #25739 B,200 E Live Oak Ave,,Arcadia,CA,91006,5629,LOS ANGELES,Convenience Store,34.108204,-118.02422,,,24841
-118.26955,33.94698,447490,La Flor Meat Market,9809 S San Pedro St,,Los Angeles,CA,90003,4332,LOS ANGELES,Grocery Store,33.94698,-118.26955,,,24887
-118.19374,33.805107,366323,Walgreens 05650,2627 Pacific Ave,,Long Beach,CA,90806,2610,LOS ANGELES,Other,33.805107,-118.19374,,,24895
-118.26173,34.080425,446534,VONS 3263,1342 N Alvarado St,,Los Angeles,CA,90026,3129,LOS ANGELES,Supermarket,34.080425,-118.26173,,,24922
-118.21128,33.929008,366358,FOOD 4 LESS 324,11245 Long Beach Blvd,,Lynwood,CA,90262,3338,LOS ANGELES,Super Store,33.929008,-118.21128,,,24939
-118.09581,34.689564,367217,STATER BROS. MARKETS 144,1850 E Avenue J,,Lancaster,CA,93535,4475,LOS ANGELES,Supermarket,34.689564,-118.09581,,,24955
-118.16884,33.865459,600044,Cherry Liquor Inc,6069 Cherry Ave,,Long Beach,CA,90805,3201,LOS ANGELES,Convenience Store,33.865459,-118.16884,,,25006
-117.88819,33.987473,634464,99 Cents Only Store 112,19033 Colima Rd,,Rowland Heights,CA,91748,2922,LOS ANGELES,Other,33.987473,-117.88819,,,25072
-118.22575,34.188068,634522,Old Fashion Deli 2,2830 N Verdugo Rd,,Glendale,CA,91208,2237,LOS ANGELES,Supermarket,34.188068,-118.22575,,,25083
-118.11986,34.674965,634823,TOWN LIQUOR,604 E Avenue K,,Lancaster,CA,93535,4736,LOS ANGELES,Convenience Store,34.674965,-118.11986,,,25115
-118.15327,34.135807,634856,VONS 2152,155 W California Blvd,,Pasadena,CA,91105,3005,LOS ANGELES,Supermarket,34.135807,-118.15327,,,25118
-118.27823,33.96299,634975,LA Broadway Market,8408 S Broadway,,Los Angeles,CA,90003,3329,LOS ANGELES,Grocery Store,33.96299,-118.27823,,,25130
-118.48938,34.026459,631897,VONS 2002,1311 Wilshire Blvd,,Santa Monica,CA,90403,5410,LOS ANGELES,Supermarket,34.026459,-118.48938,,,25188
-118.14689,34.157867,632067,PASADENA FISH MARKET,181 E Orange Grove Blvd,,Pasadena,CA,91103,3424,LOS ANGELES,Specialty Store,34.157867,-118.14689,,,25198
-118.07056,33.971703,632559,Alta Dena Express,11302 Washington Blvd,,Whittier,CA,90606,3114,LOS ANGELES,Convenience Store,33.971703,-118.07056,,,25241
-118.18461,33.769272,600402,VONS 2861,600 E Broadway,,Long Beach,CA,90802,5124,LOS ANGELES,Supermarket,33.769272,-118.18461,,,25293
-118.28419,34.043598,631092,Nuno D & T Inc.,1605 S Hoover St,Ste 106,Los Angeles,CA,90006,4957,LOS ANGELES,Supermarket,34.043598,-118.28419,,,25346
-118.42638,34.24184,631189,7-ELEVEN #18910 E,13450 Osborne St,,Arleta,CA,91331,5522,LOS ANGELES,Convenience Store,34.24184,-118.42638,,,25356
-118.28796,33.72406,599803,M & P LIQUOR MARKET,2200 S Pacific Ave,,San Pedro,CA,90731,5934,LOS ANGELES,Convenience Store,33.72406,-118.28796,,,25506
-117.94005,34.036514,635292,Snap- E- Ed'S Country Liquor & Deli,15823 Amar Rd,,La Puente,CA,91744,2107,LOS ANGELES,Convenience Store,34.036514,-117.94005,,,25537
-118.43261,34.309174,601592,VONS 2034,13730 Foothill Blvd,,Sylmar,CA,91342,3104,LOS ANGELES,Supermarket,34.309174,-118.43261,,,25573
-118.32809,34.099838,600770,Hollywood F M - Sust Econ Enterp of LA,1600 Ivar Ave,,Los Angeles,CA,90028,6305,LOS ANGELES,Farmers and Markets,34.099838,-118.32809,GusNIP,California Department of Food and Agriculture,25613
-118.17384,33.782578,716265,LA BODEGA MARKETS 4,1420 E Anaheim St,,Long Beach,CA,90813,3714,LOS ANGELES,Grocery Store,33.782578,-118.17384,,,25658
-118.08165,34.06271,600863,Circle K 2725221,8609 Garvey Ave,,Rosemead,CA,91770,3272,LOS ANGELES,Convenience Store,34.06271,-118.08165,,,25661
-118.26473,33.831547,601885,RALPHS GROCERY CO 256,650 E Carson St,,Carson,CA,90745,2719,LOS ANGELES,Super Store,33.831547,-118.26473,,,25685
-118.35045,34.174595,450510,SMART & FINAL 471,3708 W Burbank Blvd,,Burbank,CA,91505,2239,LOS ANGELES,Super Store,34.174595,-118.35045,,,25943
-118.1033,34.062668,450791,Big Saver Foods 8,7619 Garvey Ave,,Rosemead,CA,91770,3001,LOS ANGELES,Super Store,34.062668,-118.1033,,,25966
-118.30478,34.090828,451032,JONS MARKET 7,5311 Santa Monica Blvd,,Los Angeles,CA,90029,1105,LOS ANGELES,Supermarket,34.090828,-118.30478,,,25988
-118.57235,34.390945,633914,VONS 2030,25850 The Old Rd,,Stevenson Ranch,CA,91381,1710,LOS ANGELES,Supermarket,34.390945,-118.57235,,,25999
-118.21355,33.934998,683558,99  CENTS ONLY STORE 130,10821 Long Beach Blvd,,Lynwood,CA,90262,1912,LOS ANGELES,Other,33.934998,-118.21355,,,26076
-118.62634,34.186474,683598,RALPHS GROCERY CO. 213,22915 Victory Blvd,,West Hills,CA,91307,3533,LOS ANGELES,Super Store,34.186474,-118.62634,,,26082
-118.46615,34.18811,683720,99 Ranch Market 13,6450 Sepulveda Blvd,Ste B,Van Nuys,CA,91411,1300,LOS ANGELES,Super Store,34.18811,-118.46615,,,26091
-118.11792,34.099377,423349,CVS Pharmacy 3968,816 E Main St,,Alhambra,CA,91801,4054,LOS ANGELES,Other,34.099377,-118.11792,,,26162
-118.29984,33.993202,420832,Leyva's Mini Market,1358 W 54th St,,Los Angeles,CA,90037,3441,LOS ANGELES,Convenience Store,33.993202,-118.29984,,,26306
-118.1796,33.981747,423432,Palomino Market,6159 Heliotrope Ave,,Maywood,CA,90270,3418,LOS ANGELES,Grocery Store,33.981747,-118.1796,,,26362
-118.36129,34.172413,483085,Royal Liquor,5600 Cahuenga Blvd,,North Hollywood,CA,91601,2103,LOS ANGELES,Convenience Store,34.172413,-118.36129,,,26448
-118.20672,33.846519,684161,SMART & FINAL 369,20410 S Susana Rd,,Carson,CA,90810,1135,LOS ANGELES,Super Store,33.846519,-118.20672,,,26458
-118.19383,33.793369,434061,Dominic Co. Inc,1995 Pacific Ave,,Long Beach,CA,90806,5321,LOS ANGELES,Convenience Store,33.793369,-118.19383,,,26564
-118.56682,34.277142,483275,Walmart 2526,19821 RINALDI ST,,PORTER RANCH,CA,91326,    ,LOS ANGELES,Super Store,34.277142,-118.56682,,,26579
-118.26996,34.057281,684349,FOOD 4 LESS 770,1700 W 6th St,,Los Angeles,CA,90017,1004,LOS ANGELES,Super Store,34.057281,-118.26996,,,26613
-118.29954,33.890182,423772,99 Cents Only Store 199,15505 S Normandie Ave,,Gardena,CA,90247,4013,LOS ANGELES,Other,33.890182,-118.29954,,,26616
-118.37035,34.201664,370823,Fiesta Liquor,7215 Vineland Ave,,Sun Valley,CA,91352,5003,LOS ANGELES,Convenience Store,34.201664,-118.37035,,,26709
-118.46777,34.232498,371023,PANADERIA Y MERCADO LA FIESTA,8925 Sepulveda Blvd,100-103,North Hills,CA,91343,4300,LOS ANGELES,Grocery Store,34.232498,-118.46777,,,26751
-118.1665,33.949165,419223,El Super 1,5702 Firestone Blvd,,South Gate,CA,90280,3704,LOS ANGELES,Supermarket,33.949165,-118.1665,,,26760
-118.53645,34.427879,684637,Vons 3325,26518 Bouquet Ln,,Saugus,CA,91350,2353,LOS ANGELES,Supermarket,34.427879,-118.53645,,,26834
-118.38338,34.054691,424240,Walgreens 06445,8770 W Pico Blvd,,Los Angeles,CA,90035,2211,LOS ANGELES,Other,34.054691,-118.38338,,,26933
-118.1573,33.77166,483687,RALPHS GROCERY COMPANY 251,2930 E 4th St,,Long Beach,CA,90814,1355,LOS ANGELES,Super Store,33.77166,-118.1573,,,26935
-118.43958,34.179375,483782,7-ELEVEN 18949 D,14060 Oxnard St,,Van Nuys,CA,91401,3806,LOS ANGELES,Convenience Store,34.179375,-118.43958,,,26991
-117.89024,34.099091,483823,7-ELEVEN 18840 E,1085 N Citrus Ave,,Covina,CA,91722,2738,LOS ANGELES,Convenience Store,34.099091,-117.89024,,,26997
-118.58932,34.193817,512628,CARNICERIA YAHUALICA,20935 Vanowen St,,Canoga Park,CA,91303,3804,LOS ANGELES,Grocery Store,34.193817,-118.58932,,,27008
-118.16765,34.022648,512682,SAFETY LIQUOR,4635 Whittier Blvd,,Los Angeles,CA,90022,3007,LOS ANGELES,Convenience Store,34.022648,-118.16765,,,27021
-118.39776,34.069046,512860,Whole Foods Market 10022,239 N Crescent Dr,,Beverly Hills,CA,90210,4821,LOS ANGELES,Super Store,34.069046,-118.39776,,,27041
-118.15441,34.030125,510189,DISCOUNT CLUB 2,377 S Atlantic Blvd,,Los Angeles,CA,90022,2024,LOS ANGELES,Convenience Store,34.030125,-118.15441,,,27211
-118.64484,34.154411,510195,Ralphs Fresh Fare 205,4754 Commons Way,,Calabasas,CA,91302,3363,LOS ANGELES,Super Store,34.154411,-118.64484,,,27213
-118.29942,34.174774,510423,Trader Joe's 124,214 E Alameda Ave,,Burbank,CA,91502,1508,LOS ANGELES,Supermarket,34.174774,-118.29942,,,27232
-118.53602,34.205242,487217,CVS Pharmacy 5022,7400 Reseda Blvd,,Reseda,CA,91335,2818,LOS ANGELES,Other,34.205242,-118.53602,,,27257
-117.98582,34.080345,485095,CARNICERIA SAN GABRIEL,13126 Ramona Blvd,,Baldwin Park,CA,91706,3805,LOS ANGELES,Grocery Store,34.080345,-117.98582,,,27270
-118.02177,33.924503,508441,99 CENTS ONLY STORES  37,14540 Leffingwell Rd,,La Mirada,CA,90638,1028,LOS ANGELES,Other,33.924503,-118.02177,,,27272
-118.30238,34.258842,510854,VONS 2124,7789 Foothill Blvd,,Tujunga,CA,91042,2137,LOS ANGELES,Supermarket,34.258842,-118.30238,,,27350
-118.12817,34.09309,511384,CITY OF ALHAMBRA FARMERS MARKET,100 S 2nd St,,Alhambra,CA,91801,3716,LOS ANGELES,Farmers and Markets,34.09309,-118.12817,,,27398
-118.44964,34.222618,511561,Walmart 2568,8333 VAN NUYS BLVD,,PANORAMA CITY,CA,91402,    ,LOS ANGELES,Super Store,34.222618,-118.44964,,,27411
-118.27811,33.946602,508551,Rite-On-Market,9824 S Broadway,,Los Angeles,CA,90003,4124,LOS ANGELES,Convenience Store,33.946602,-118.27811,,,27463
-118.30749,34.025085,487313,FOOD 4 LESS  359,1748 W Jefferson Blvd,,Los Angeles,CA,90018,3910,LOS ANGELES,Super Store,34.025085,-118.30749,,,27471
-118.28243,34.003059,511948,Reggie's Liquor,4426 S Figueroa St,,Los Angeles,CA,90037,3147,LOS ANGELES,Convenience Store,34.003059,-118.28243,,,27502
-118.43436,34.003185,512127,Marvista Ranch Market,12420 Venice Blvd,Ste 105,Los Angeles,CA,90066,3830,LOS ANGELES,Grocery Store,34.003185,-118.43436,,,27530
-118.34589,33.825138,512192,RALPHS GROCERY COMPANY  110,3455 Sepulveda Blvd,,Torrance,CA,90505,2606,LOS ANGELES,Super Store,33.825138,-118.34589,,,27536
-118.23737,34.150925,484151,Kozanian Ranch Market 1,356 N Chevy Chase Dr,,Glendale,CA,91206,6013,LOS ANGELES,Supermarket,34.150925,-118.23737,,,27582
-118.43613,34.302284,485301,7-ELEVEN 13898 D,13919 Hubbard St,,Sylmar,CA,91342,4116,LOS ANGELES,Convenience Store,34.302284,-118.43613,,,27618
-118.09084,34.161678,486652,PASADENA CERTIFIED FARMERS MARKET,2915 E Sierra Madre Blvd,,Pasadena,CA,91107,1846,LOS ANGELES,Farmers and Markets,34.161678,-118.09084,GusNIP,California Department of Food and Agriculture,27764
-118.12354,34.062412,486654,T.S. EMPORIUM,122 W Garvey Ave,,Monterey Park,CA,91754,2857,LOS ANGELES,Other,34.062412,-118.12354,,,27770
-118.26995,34.061726,486672,GREEN CIRCLE MARKET,1840 W 3rd St,,Los Angeles,CA,90057,2302,LOS ANGELES,Convenience Store,34.061726,-118.26995,,,27776
